hospital_id,district_id,hospital_name,address,pincode,latitude,longitude,mco_contact_number,total_beds,hospital_type,government_subtype
1,35,INDRAVATI HOSPITAL & RESEARCH CENTRE,"Plot no. GHANSOLI VILLAGE, RCC HOUSE, ARJUNE WADI %E2%80%93 Thane %E2%80%93 400701",400701.0,19.1243889,72.9976111,8452862559.0,30,Corporate,
2,35,MAHATMA PHULE CHARITABLE TRUST HOSPITAL,"C7, Budhyadev Mandir Marg, Sector 4, Sanpada, Navi Mumbai, Maharashtra",400705.0,19.0718611,73.0074444,9702693695.0,100,Corporate,
3,17,REHBAR FOUNDATION MALIK RAKIYA KHATOON DIALYSIS CENTER,,,19.446040649122807,72.36373664912281,,15,Corporate,
4,19,SANJEEVANI HOSPITAL,"NEAR TAHSIL OFFICE, GOTMARE LAYOUT,  BRAHMI KALMESHWAR %C2%BF 441501",441501.0,21.231603,78.91739,9860447504.0,30,Corporate,
5,35,A & G HOSPITAL,Suchak House murbad road opp karnik road kalyan (w),421301.0,19.5353,76.1449,9326114930.0,50,Corporate,
6,2,AADHAR CHARITABLEMULTISPECIALITY HOSPITAL,"01,MURTIJAPUR,AKOLA",444107.0,20.71,77.39,9373167397.0,30,Corporate,
7,20,AADHAR HOSPITAL,"Wadiya factory, Shivaji Nagar Nanded?%27,%27HSP241111494%27)",431602.0,19.2,77.4,9823088039.0,67,Corporate,
8,6,AADHAR HOSPITAL,"Adharsh Nagar  , D.P.Road , Beed - 431122",431122.0,19.839128,75.890447,8237171929.0,30,Corporate,
9,25,"AADHAR HOSPITAL MULTISPECIALITY & ICU ( Managed by Haritatv Ayurved Pvt. Ltd.),Pune","67 SARVER NO 28, DEHU ROD NEAR RAJGURU BANK, Haveli, Pune-412101",412101.0,18.7693514,73.4041588,7385159540.0,30,Corporate,
10,23,AADHAR MULTISPECIALITY HOSPITAL,"NEW AROGYA NAGAR, UMARGA %C2%BF 413606",413606.0,17.8319935,76.6252018,9146164265.0,25,Corporate,
11,31,"AADHAR SUPER SPECIALITY PVT LTD,Solapur North,Solapur,PVT","140/1P, OLD RTO, RAILWAY LINES, SOLAPUR-413001",413304.0,17.794052,75.35725,9923988299.0,30,Corporate,
12,28,AADITYA ORTHO&GEN SURGICAL HOSPITAL,"A/p Ashta, Tal. Walva, Dist. Sangli",416301.0,16.95,74.43,9860469694.0,30,Corporate,
13,2,AAROGYAM HOSPITAL,"01 , STATION ROAD INFRONT OF IDBI BANK GANGADHAR PLOT AKOLA , 444001",444001.0,20.71,77.0,9028395411.0,15,Corporate,
14,3,AAROGYAM INSTITUTE OF MEDICAL SCIENCES,"WALCUT COMPOUND, BAJAJ NAGAR,MORSHI ROAD,NEAR RAILWAY STATION,AMRAVATI?%27,%27HSI47129%27)",444601.0,20.9298611,77.7523056,9823069100.0,50,Corporate,
15,4,AAROGYAM WOMEN AND CHLDREN CARE HOSPITAL PVT.LTD,,,19.944847311671925,75.41925964069401,,49,Corporate,
16,2,AASTHA ORTHOPEDIC HOSPITAL AND DIAGNOSTIC CENTER,"MAHAJANI PLOTS , near mahajani hospital , JATHAR PETH ROAD , near jain lawns - 444004",444004.0,20.67,77.03,8830342299.0,10,Corporate,
17,19,ABO EYE INSTITUTE,31BAIDYANATH SQUARE NAGPUR 440003,440003.0,21.12283333,79.08502778,9890162229.0,50,Corporate,
18,15,ACCIDENT FRACTURE ORTHOPEDIC & REPLACEMENT HOSPITAL,"20/564, BEHIND HOTEL UPAVAN, KOLHAPUR ROAD, Hatkanangle, Kolhapur- 416115",416115.0,16.40594444,74.28052778,9922556655.0,15,Corporate,
19,25,ACCORD HOSPITAL,"Plot No. 1/1, Sector No. 4,Spine Road,Santnagar, Moshipradhikaran,",412105.0,18.6856,73.9441,9689920815.0,150,Corporate,
20,17,ACHARYA SHRI RAMESH DIALYSIS CENTER,,,19.446040649122807,72.36373664912281,,20,Corporate,
21,17,ACI CUMBALLA HILL HOSPITAL,,,19.446040649122807,72.36373664912281,,53,Corporate,
22,6,ADHAR HOSPITAL( ACCIDENT AND CRITICAL CARE UNIT),"BEHIND R.B.ATTAL COLLEGE, GEORAI BEED ROAD",422605.0,19.612829,74.101239,8390297409.0,30,Corporate,
23,25,ADHAR SUPERSPECIALITY HOSPITAL,"PARGAON, AVASARI (BK), SHINGAVE, Ambegaon, Pune-412406",412406.0,18.975906,74.0447,9975051000.0,45,Corporate,
24,35,ADHIKARI LIFELINE BETEGAON HOSPITAL,,,19.295112535714285,73.01962990809524,,50,Corporate,
25,36,ADHIKARI LIFELINE Hospital -BOISAR-PALGHAR.,"TATA HOUSING,BOISAR ,BETEGAON,",401404.0,19.6982778,72.7689167,7030115444.0,30,Corporate,
26,24,ADHIRAJ MULTISPECIALITY HOSPITAL,Pathri Corner Bus Stand Road Selu  431503,431503.0,76.44155,19.44605,8275824812.0,15,Corporate,
27,13,"ADIT NEURO SURGICAL AND MATERNITY HOSPITAL, JALGAON","377/26,OMKAR NAGAR,NEAR CIVIL HOSPITAL,JILHA PETH,CIVIL HOSPITAL ROAD,JALGAON 425001",425001.0,20.46428,75.004181,9423974651.0,30,Corporate,
28,29,ADVANCE ORTHO HOSPITAL,"Plot No. 321/D,321/A/2, SHIRWAL, PUNE BANGLORE HIGHWAY - 412801",412801.0,18.200469,73.989143,8411866209.0,10,Corporate,
29,19,AERO HOSPITAL,"12 , KADBI SQUARE , KAMPTEE ROAD , METRO STATION , 440014",440014.0,21.17947222,79.08972222,9823079281.0,30,Corporate,
30,34,AGASTYA HOSPITAL ORTHO AND DENTAL CARE,DHAMANGAON ROAD 445206,445206.0,19.6008611,77.6906388,9764577990.0,20,Corporate,
31,7,AGRAWAL HOSPITAL,"Behind Nandura Urban Bank, Main Road near Water tank Nandura, Buldhana 443404",443404.0,20.9718095,76.8583928,7350427422.0,30,Corporate,
32,19,AIIMS Hospital Mihan Nagar,"PLOT NO 2,MIHAN NAGPUR,W BUILDING,D P School Mihan,NAGPUR",441108.0,20.859476,78.969831,7066501626.0,100,Government,
33,24,AIMS HOSPITAL,"Plot no: 22 ,AIMS TOWER,APNA CORNER ,DR ZAKIR HUSSAIN ROAD , PARBHANI -431401",431401.0,19.269567,76.774114,7588978250.0,100,Corporate,
34,15,AINAPURE EYE HOSPITAL,"07, Varad Colony, Laxmi Road, Shirol, Kolhapur-416101",416101.0,16.60630039894737,74.30376235873685,9325914007.0,10,Corporate,
35,4,AJANTA SUPERSPECIALITY HOSPITAL,,,19.944847311671925,75.41925964069401,,50,Corporate,
36,31,AKLUJ CRITICAL CARE AND TRAUMA CENTER,"100 Footy Bypass road, Akluj",413101.0,17.477512,75.298578,2185224800.0,50,Corporate,
37,1,AKSHAY CHILDRENS HOSPITAL AND MATERNITY HOME,"Plot No - 5 , AT BEHIND BHARAT BANK , NEAR ICHCHAPURATI RAM MANDIR , NAVAPUR NAKA BOISAR - 401501",414001.0,19.1627778,77.3060556,9511110444.0,15,Corporate,
38,26,ALFA HOSPITAL PVT LTD,"MORBA ROAD MANGAON  , 402104",402104.0,18.2384815,73.2516217,9860194940.0,50,Corporate,
39,22,ALL CARE MULTISPECIALITY HOSPITAL,"5TH FLOOR BUSSINESS ICON BLD, NARAYAN BAPU NAGAR , PINTO COLLONY , JAIL ROAD , NEAR INDRA GANDHI STATUE , 422101",422101.0,19.968664,73.831608,9423192655.0,30,Corporate,
40,17,ALL CURE SUPER SPECIALITY HOSPITAL,,,19.446040649122807,72.36373664912281,,60,Corporate,
41,31,"ALPESH BABY CARE AND CHILDREN HOSPITAL,MADHA,SOLAPUR.PVT.","TEMBHURNI ROAD, KURDUWADI, SOLAPUR- 413208",413208.0,18.024599,75.264677,9834766188.0,30,Corporate,
42,1,ALPHA MULTISPECIALITY HOSPITAL,"SANGAMNER RD. OPP. GAJANAN VASAHAT , SHRIRAMPUR -413709",413709.0,19.4860278,74.9699167,8149459054.0,35,Corporate,
43,16,ALPHA SUPERSPECIALITY HOSPITAL,"Opp Muktai Mangal Karyalaya, Sham Nagar, Ambajogai Road, Latur",413512.0,19.968664,73.831608,7276072976.0,100,Corporate,
44,35,AM PM 24 HRS HOSPITAL,AM PM 24 HRS HOSPITAL,421301.0,19.5353,76.1449,9969565495.0,51,Corporate,
45,4,AMAAN HOSPITAL ORTHOPAEDIC AND TRAUMA CENTRE,,,19.944847311671925,75.41925964069401,,10,Corporate,
46,34,AMEY NURSING HOME,"32149P YAVATMAL  MAINDE CHOWK TILAKWADI, NEAR WATER TANK  TILAKWADI  445001",445001.0,20.4131111,78.1337777,9850489820.0,10,Corporate,
47,31,AMIT ORTHOPAEDIC CENTER,"4776/108, NEAR UMA COLLEGE, KARAD ROAD, DATTA NAGAR, , PANDHARPUR, Solapur-413304",413304.0,17.794052,75.35725,9822110115.0,10,Corporate,
48,25,AMRUT HOSPITAL AND RESEARCH CENTER,"848/12, IN FRONT OF T.J.S.B. BANK,  MARKAR ROAD, ALANDI DEVACHI, Pune-412105",412105.0,18.6856,73.9441,9657708642.0,30,Corporate,
49,25,ANAND HOSPITAL,"BALAJI TOWER, CHAKAN, M.PHULE CHOWK, Pune - 410501",410501.0,18.707487,73.977126,9850048317.0,30,Corporate,
50,1,ANANDRISHIJI NETRALAYA,"125/8,ANANDRISHIJI MARG ,MAHAVEER BHAVAN,AHMADNAGAR",414001.0,19.1627778,77.3060556,8686401515.0,50,Corporate,
51,19,ANANTWAR EYE HOSPITAL,POWER GRID SQUARE NARI RING ROAD OPP. JAGAT CELLIBRATION HALL - 440026,440026.0,21.19238889,79.10386111,9823115854.0,10,Corporate,
52,11,ANANYA HOSPITAL,"Plot No. 401, HADDITOLI OFFICER COLONY %E2%80%93 441601",441601.0,21.484894,80.251647,9823066239.0,30,Corporate,
53,22,ANIRUDDHA MULTISPECIALITY HOSPITAL,"NAGARE BAYPAS ROAD,YEOLA,KOTAMGAON?%27,%27HSI83735%27)",423401.0,20.02594,74.42965,8805216886.0,101,Corporate,
54,13,ANJALI ICU MULTI SPECIALITY HEALTH CARE CENTRE LLP,572/2A/2/2B GREEN PARK COLONY CHALISGAON ROAD BHADGAON 424105,424105.0,21.12724,74.22125,9545926875.0,40,Corporate,
55,30,ANKUR HOSPITAL ZANTYE CLINIC,"SOMWAR PETH,Dr BALLAV MARG,SINDHUDURG",416606.0,16.0578056,73.46725,9422482883.0,10,Corporate,
56,35,ANMOL MULTISPECIALITY HOSPITAL,2800 13 1ST FLOOR BHIWANDI GAYATRY NAGER ABOVE ANMOL HOTEL 421302,421302.0,19.2103751,73.0464259,8600392006.0,30,Corporate,
57,28,ANNASAHEB DANGE AYURVED MEDICAL COLLEGE DHANVANTARI HOSPITAL - Operated by Sant Gyaneshwar Shikshan Sanstha,"SANGLI-ISLAMPUR ROAD,NEAR ANAND COLONY,ASHTA",416301.0,16.95,74.43,9657597893.0,0,Corporate,
58,35,ANSH HOSPITAL,BHAYANDAR INDRALOK PHASE 6 401105,401105.0,19.3096389,72.8549722,7738144030.0,20,Corporate,
59,18,APEX HOSPITALS,,,19.11878330833333,72.87393688666666,,51,Corporate,
60,17,APEX HOSPITALS MULUND (UNIT OF NOBLE MEDICAL CENTRE),,,19.446040649122807,72.36373664912281,,100,Corporate,
61,15,APEX NURSING HOME A UNIT OF RBJ HOSPITAL,"C.S.NO.517 A/13 PLOT NO 27,SHIVAJI PARK,NEAR GADRE GARDEN, NEAR CBS, KOLHAPUR-416003",416003.0,16.43108333,74.14144444,9371123288.0,40,Corporate,
62,22,APEX WELLNESS HOSPITAL LLP,"SURVEY NO 799?%20PLOT%20NO%20187%20GOVIND%20NAGAR,GOVIND%20NAGAR,NEAR%20BSNL%20OFFICE,%27,%27HSI69961%27)",422009.0,19.988439,73.720725,9822012427.0,105,Corporate,
63,16,APOLLO NEUROCARE AND SUPERSPECIALITY HOSPITAL,NEAR OLD RENAPUR NAKA AMBAJOGAI ROAD 413512,413512.0,19.968664,73.831608,8668637243.0,35,Corporate,
64,16,APOLO MULTISPECIALITY HOSPITAL,"Plot no. 65,DESHPANDE COLONY,NANDI STOP ,AUSA ROAD,LATUR- 413512",413512.0,19.968664,73.831608,8308339564.0,51,Corporate,
65,15,APOORVA MULTI SUPERSPECIALITY HOSPITAL,4636 2 DR SPM ROAD BELGAUM DR SPM ROAD DR SPM ROAD NEAR PRAKASH THEATER BELGAUM 590002,590002.0,16.60630039894737,74.30376235873685,9591434643.0,100,Corporate,
66,10,APPALWAR EYE HOSPITAL GADCHIROLI,"Dhanora Road, Gadchiroli, In Front of Vaibhav Hotel Gadchiroli %E2%80%93 442605",442605.0,20.057671,80.181995,9404463811.0,10,Corporate,
67,4,APPLE HOSPITAL,,,19.944847311671925,75.41925964069401,,49,Corporate,
68,15,APPLE HOSPITALS AND RESEARCH INSTITUTE LTD,"804/2,805/2.Bhosalewadi, Circuit House-Kadamwadi Road,Nr.Circuit House,Kolhapur,",416003.0,16.43108333,74.14144444,9371190373.0,200,Corporate,
69,7,ARIHANT DIALYSIS CENTER,"ASHIRWAD HOSPITAL CAMPUS,OPP GARDE HALL,NEAR CHURCH ROAD,BULDHANA",443001.0,20.5336389,76.1794722,9881059327.0,10,Corporate,
70,15,ARIHANT SUPERSPECIALITY HOSPITAL JAYSINGPUR,"Nandani Road, Jaysingpur, Kolhapur - 416101",416101.0,16.60630039894737,74.30376235873685,9975951431.0,30,Corporate,
71,25,ASG Eye Hospital,"Shop no 2, ground floor, Cello platina building, Shivajinagar, Near Police Ground, F . C. Road, Pune-411005",411005.0,18.5275278,73.8505,9968856495.0,14,Corporate,
72,19,ASHA HOSPITAL,"Nagpur Jabalpur Road, Kamptee, Nagpur, Maharashtra?%27,%27HSI4110%27)",441002.0,21.41470797226994,78.84095818131902,7109288741.0,100,Corporate,
73,26,ASHA MULTISPECIALITY HOSPITAL,"10 , ROADPALI-KALAMBOLI , SECTOR 16 , NEAR  DMART, Panvel  - 410218",410218.0,19.0267222,73.1048056,9819714425.0,50,Corporate,
74,22,ASHAPURI MULTISPECIALITY HOSPITAL,376 MANKAR IUDP ROAD MANMAD 423104,423104.0,20.329959,74.243788,9970303348.0,50,Corporate,
75,20,ASHIRWAD HOSPITAL,"H NO 2 11 47/1, P NO 83 BORBAN FACTORY,GOVARDHAN GHAT ROAD,NEAR GYALAXY HOSPITAL,NANDED",431601.0,20.554431,74.512024,9763727315.0,12,Corporate,
76,35,ASHISH HOSPITAL MULTISPECIALITY,SHOP NO30 31 32 B101 102 C 104 105 106 OPP JARIMARI TALAO KASHIGAON 401107,401107.0,19.1922325,73.0637706,9819250565.0,30,Corporate,
77,1,ASHVIN RURAL AYURVED HOSPITAL,Manchi  Hill Ashwi Bk tal.Sangamner  413714,413714.0,19.524659,74.418854,7620565399.0,200,Corporate,
78,13,ASHWINI MULTI SPECIALITY HOSPITAL,"62,HOUSING SOCIETY,SHAHU NAGAR,JALGAON",425001.0,20.46428,75.004181,9422780601.0,50,Corporate,
79,31,ASHWINI RURARL CANCER RESEARCH AND RELIEF SOCIETY,,,19.019509447565543,74.2110501670412,,137,Corporate,
80,4,ASIAN CITICARE SUPERSPECIALITY HOSPITAL,,,19.944847311671925,75.41925964069401,,102,Corporate,
81,17,ASIAN EYE INSTITUTE AND LASER CENTRE PVT LTD,,,19.446040649122807,72.36373664912281,,10,Corporate,
82,19,ASIAN KHMC MULTISPECIALITY HOSPITAL,"Plot No.213, SHANKAR NAGAR, 440010",440010.0,21.12566667,79.05777778,9975015673.0,50,Corporate,
83,4,ASPLs CSMSS MEDICAL COLLEGE AND HOSPITAL,,,19.944847311671925,75.41925964069401,,605,Corporate,
84,15,ASTER AADHAR HOSPITAL,"R S NO 628,NEAR SHASTRI NAGAR KMT WORKSHOP,SHASTRI NAGAR,KMT WORKSHOP",416012.0,16.41294444,74.13072222,9225068500.0,75,Corporate,
85,8,"ASTHA CRITICAL CARE AND MULTI-SPECIALITY HOSPITAL,BRAMHAPURI",2984/4 S.NO 63/2 Near sai Petrol Pump Delanwadi Delanwadi Taluka Bramhapuri 441206,441206.0,20.3912377,79.9472502,8605887346.0,30,Corporate,
86,1,ATMADEEP MULTISPECIALITY HOSPITAL AND ICU,NEWASA PHATA MAKTAPUR ROAD 414603,414603.0,19.613717,75.088405,8263851487.0,30,Corporate,
87,25,ATTHARVA ACCIDENT HOSPITAL,"153/154, TALEGAON DABHADE, NEAR NUTAN ENGINEERING COLLEGE, MAWAL, PUNE-410507",410507.0,18.7470593,73.6863569,9921330989.0,100,Corporate,
88,4,AURANGABAD CHIKALTHANA LIONS EYE HOSPITAL,,,19.944847311671925,75.41925964069401,,45,Corporate,
89,4,AURANGABAD INSTITUTE OF MEDICAL SCIENCES PVT LTD.,,,19.944847311671925,75.41925964069401,,52,Corporate,
90,4,AURANGABAD KIDNEY HOSPITAL,,,19.944847311671925,75.41925964069401,,30,Corporate,
91,2,AWAGHATE BAL RUGNALAYA AND MULTISPECIALITY CENTRE,"HARIYANAGAR,MAIN ROAD MURTIZAPUR,AKOLA,",444107.0,20.71,77.39,9011117501.0,20,Corporate,
92,35,AYUR HOSPITAL,"SHANESHWAR COMPLEX, NEAR BALAJI JEWELLERS.CHINCHPADA ,KALYAN EAST , Katemanivali , Kalyan , Maharashtra , 421306",421306.0,19.413135,73.364975,9967580872.0,50,Corporate,
93,7,AYUSHMAN HOSPITAL,"%C2%A0opposite chopade hospital, Chalis Bigha, Malkapur, Maharashtra 443101",443101.0,20.7078,76.2097508,7827463003.0,30,Corporate,
94,11,AYUSHYA CRITICAL CARE AND MULTISPECIALITY HOSPITAL,"NEAR HINDI GROUND SCHOOL, RAILTOLI %E2%80%93 441614",441614.0,21.555989,80.156813,9823376654.0,32,Corporate,
95,14,Aadhar Hospital And ICU,"Plot no -4 Near Abasaheb Danve Residence New Mondha Road,Jalna -431203",431203.0,19.84,75.89,9420705796.0,50,Corporate,
96,28,Aaditya Hospital,"VISHRAMBAG SANGLI,SANGLI MIRAJ ROAD,Near Hotel Pai Prakash VISHRAMBAG SANGLI",416415.0,16.91,74.52,7798953295.0,50,Corporate,
97,35,Aarogya Super speciality Hospital,"unit 1,2,3 first floor jai shankar hight old mumbai pune road kharegaon naka kalwa west thane  400605",400605.0,19.1934722,72.9898333,9833556480.0,40,Corporate,
98,35,Aarogyam Multi-speciality Hospital,,,19.295112535714285,73.01962990809524,,35,Corporate,
99,25,"Aarogyam Multispeciality Hospital,Pvt,Khed,Pune","479, OPP. MARATHI SHALA,RANUBAIMALA, CHAKAN-TALEGAON ROAD, NANEKARWADI, KHED, PUNE- 410501",410501.0,18.707487,73.977126,9960760086.0,55,Corporate,
100,24,"Aashirwad Hospital,Parbhani,Pvt","168, DATTA NAGAR, JINTUR ROAD, GANPATI MANDIR, PARBHANI-431401",431401.0,19.269567,76.774114,8007539999.0,30,Corporate,
101,14,Aashirwad Superspecility Hospital,"Near Ambar Hotel, Ma Jijau Chouk , Jalna  , 431203",431203.0,19.84,75.89,7507488800.0,30,Corporate,
102,36,Aastha Hospital,"Manor Village,Palghar Wada Road,opp Alahabad Bank,Palghar",401403.0,19.7868466,73.0390519,9867638007.0,33,Corporate,
103,14,Aastha Hospital and ICU,"Bhokardan Naka,Rajur Road,JALNA",431203.0,19.84,75.89,9423680271.0,50,Corporate,
104,34,"Aastha Hospital, Wani","VEER WAMANRAO CHOWK, YAVATMAL  NEAR AMBIKE DIAGNOSTIC CENTRE 445001",445304.0,20.0558333,78.9524166,9168586600.0,15,Corporate,
105,7,Aastha accident hospital,"Govind Nagar,Kediyo Society Malkapur",443101.0,20.7078,76.2097508,9284886842.0,30,Corporate,
106,14,Aayush Bal Rugnalay,"Plot no.12, Saklecha Nagar, Rajur Road, Saklecha Nagar - 431203",431203.0,19.84,75.89,8888131177.0,20,Corporate,
107,32,Acharya Vinoba Bhave Rural Hospital sawangi Wardha,"?Yavatmal%20Road,%20Sawangi%20Meghe,%20Wardha%20-%27,%27HSP061211523%27)",442001.0,20.7531062,78.511073639779,8390117863.0,1525,Corporate,
108,20,"Adhav Hospitals ,Nirmal Neurocare & Super Speciality Centre",Jawahar Nagar,431601.0,20.554431,74.512024,8446134801.0,45,Corporate,
109,25,"Aditya Birla Memorial Hospital,Chinchwad,Pune,PVT","Survey No.31,Thergaon,Aditya Birla Hospital Marg,Chinchwad",411033.0,18.56578105076228,73.89409255768733,9881123027.0,500,Corporate,
110,26,Advanced Centre for Treatment Research & Education in Cancer (ACTREC) Tata Memorial Centre,"plot no. 1 and 2, sector 22, Kharghar",410210.0,19.0135,73.1710556,9869451628.0,120,Government,GH
111,28,Akashdeep Hospital,"39, Yeshwant Housing Society, Anand Nursing Home, Sangli Road, Sangli-416410",416410.0,17.0348056,74.6018333,9890787999.0,8,Corporate,
112,31,"Akluj Multispeciality Hospital,Malshiras,Solapur,Pvt","Shree shoping center, first floore, Market yard near , Akluj, Malshiras, Solapur-413101",413101.0,17.477512,75.298578,8805975345.0,35,Corporate,
113,28,Akshay Multispecialty Hospital,"Kukarud, Karad Malkapur Road, Shirala, Sangli-415405",415405.0,18.97,73.15,9623242222.0,30,Corporate,
114,31,"Aldar Hospital,Sangola,Solapur,Pvt","Yerande Complex, Station road, Near Railway station, Songola, Solapur- 413307",413307.0,17.405468,75.136661,9029044009.0,10,Corporate,
115,25,"Alephata Hospital,Junnar,Pune,Pvt","2979/2, AHEMADNAGAR KALYAN HAYWAY, Opp.HP GAS GOUDUN, JUNNAR, Pune-412411",412411.0,19.109805,74.107811,9822018910.0,75,Corporate,
116,26,Alibaug Dialysis centre,"156, SHREEBAG NO 2, 402201 156, SHREEBAG NO 2, 402201",402201.0,18.6418056,72.8723611,9423892281.0,5,Corporate,
117,26,All For Eye Hospital,"Beside BSNL Office, Unimount Empire, Old mumbai- Pune Highway , Khopoli %E2%80%93 410203",410203.0,18.83,72.38,7057458280.0,5,Corporate,
118,4,Alpine superspecialty Hospital,,,19.944847311671925,75.41925964069401,,80,Corporate,
119,15,Amate Hospital,"1070, Bhogawati - Shahunagar (Parite), Bhogawati Sugar Factory, Radhanagari Road, Tahsil : Karveer, Kolhapur-416211",416211.0,16.60630039894737,74.30376235873685,9404066000.0,25,Corporate,
120,7,Amrut Hrudayala and superspeciality hospital,"Plot No 1,survey No 26/5 Jambhure road, Buldhana",443001.0,20.5336389,76.1794722,9922553948.0,50,Corporate,
121,1,Anand Rishiji Hospital And MRC,"124,Near Railway Station,Anand Rishiji Marg,Near Hotel Yash Palace,?%27,%27HSI22357%27)",414001.0,19.1627778,77.3060556,9890211999.0,163,Corporate,
122,25,"Anandi Multispeciality Hospital,Purandar,Pune,Pvt","PUNE-SASWAD ROAD, JEJURI, Pune-412303",412303.0,18.29966,74.248531,7620254150.0,30,Corporate,
123,6,Anandrishji Diagnostic centre,Jalna road - Beed - 431122,431122.0,19.839128,75.890447,8262009091.0,10,Corporate,
124,17,Anant Kalpana Dialysis centre Rashmi Foundation,,,19.446040649122807,72.36373664912281,,20,Corporate,
125,35,Anil Eye Hospital,"Opp. Dedhia Bhavan, The Signature, Ganesh Mandir Road %E2%80%93 421201",421201.0,19.2167,73.0833,9769483796.0,10,Corporate,
126,15,"Anish Multispeciality Hospital, Kurundwad","Anish Multispeciality,KURUNDWAD,TERWAD ROAD,KOLHAPUR?%27,%27HSI53393%27)",416106.0,16.60630039894737,74.30376235873685,9404987111.0,40,Corporate,
127,9,Anjana heart hospital,"25, suyog colony, mahindale shivar ,sakri road,Dhule-424001",424001.0,20.9254213,74.7395367,9892224981.0,40,Corporate,
128,7,Anjanta Hospital,"Mehkar,443301",443301.0,20.13966,76.563,9422158111.0,15,Corporate,
129,31,"Ankur Bal Rugnalyala ,Pandharpur,Solapur,Pvt","4739/2, NEAR TAKALE HOSPITAL, KARAD ROAD, NEAR ISCON TEMPLE, PANDHARPUR, SOLAPUR-413304",413304.0,17.794052,75.35725,9822521773.0,30,Corporate,
130,28,"Anuradha Superspeciality Eye Hospital,Sangli,Pvt","VISHRAMBAG, 100 FT ROAD, GANESH MANDIR BYLANE, SANGLI-416415",416415.0,16.91,74.52,9422614784.0,50,Corporate,
131,35,Anurag Multispecialty hospital,"gurukrupa complex,Vaitarna road Khardi, Kasara , tal:, district:, Shahapur, Maharashtra 421301",421301.0,19.5353,76.1449,8888019896.0,30,Corporate,
132,25,"Anushree Childrens And Multispeciality Hospital,Indapur,Pune,Pvt","W1Z1006413,  OLD PUNE SOLAPUR HIGHWAY, BEHIND SBI, INDAPUR, PUNE- 413106",413106.0,18.102174,75.095159,8766593631.0,30,Corporate,
133,27,Aparant Hospital,"APARANT HOSPITAL CHIPLUN,SAVITRI ENCLAVE,CHIPLUN,ABOVE KINGS SUPERMARKET BHOGALE,OPP LIC OFFICE,RATNAGIRI",415605.0,17.533306,73.516694,9028229708.0,30,Corporate,
134,20,Apeksha critical care and multispecialty hospital pvt ltd nanded,"Railway Station Road, Nanded",431601.0,20.554431,74.512024,9226386007.0,55,Corporate,
135,22,Apex Hospital,"60 fit road,shamji nagar, Satana,rajmata jijau chowk %E2%80%93 423301",423301.0,20.590527,74.198717,9423971048.0,50,Corporate,
136,25,Apex Hospital,"319/3,Rajgurunagar,Pune Nasik Highway,Pune Nashik Highway,PUNE",410505.0,18.988502,73.63596,9999999.0,50,Corporate,
137,25,"Apex Hospital,Pune City,Pvt","SR NO 13/12, KALEWADI PHATA , PAWAR NAGAR,THERGAON, NEAR RHYATHAM SOCIETY, Pune -411033",411033.0,18.56578105076228,73.89409255768733,8830811676.0,45,Corporate,
138,35,"Apex Kideny Care Center , Miraroad","Apex Kidney Care Pvt Ltd,101, Eden Rose Complex,Miraroad (East),Beverly Park,Opp. Cinemax Theatre,THANE",401107.0,19.1922325,73.0637706,9821267704.0,9,Corporate,
139,35,"Apex Kideny Care Center , Vashi","Plot No 41/1, Hope & Care Centre, Sector 3,",400705.0,19.0718611,73.0074444,9821267704.0,12,Corporate,
140,35,"Apex Kidney Care Centre , Kalyan","Parnaka Rd, Samarth Co-Operative Housing Society, Kalyan West, Kalyan, Maharashtra",421301.0,19.5353,76.1449,9821267704.0,14,Corporate,
141,19,Archangel Hospital,"PLOT NO 5&6, UMRED, NARAYAN NAGAR BYPASS ROAD UMRED, OPP.INDANE GAS GODAWN, 441203",441203.0,20.92246,79.364429,7116243220.0,50,Corporate,
142,28,"Areen Hospital,Miraj,Sangli","MIRAJ, VANTMURE CORNER, SANGLI-416410",416410.0,17.0348056,74.6018333,8830688642.0,35,Corporate,
143,32,Arihant Critical Care,"590,Hinganghat,Nandgaon road,Opp IMA HALL,WARDHA",442301.0,20.554451,78.836183,9422140889.0,10,Corporate,
144,4,Arihant hospital,,,19.944847311671925,75.41925964069401,,25,Corporate,
145,20,Asha Hospital,"PAWDEWADI NAKA,PARIMAL NAGAR,",431602.0,19.2,77.4,9272504540.0,30,Corporate,
146,13,Asha Urology Hospital Jalgaon,"5,OPPOSITE BSNL OFFICE,ONKAR-NAGAR,425001",425001.0,20.46428,75.004181,9987166164.0,15,Corporate,
147,13,Ashirwad Hospital,285/4 Shikshak colony Pachora Road Railway Station 424206,424206.0,20.76134140182927,74.84583924085365,7875332700.0,30,Corporate,
148,22,Ashoka Medicover Hospital,"Survey No. 113, Indira Nagar, Savta Mali Road, Near Vascon IT park , Nashik %E2%80%93 422009",422009.0,19.988439,73.720725,8669956766.0,225,Corporate,
149,15,"Ashoka Multispecialty Hospital,Karvir,Kolhapur,Pvt","1662 A Ward, Rankala Road, Karvir, Kolhapur-416012",416012.0,16.41294444,74.13072222,8007542971.0,30,Corporate,
150,15,"Ashokrao Mane Ayurvedic Hospital And Research Center Vathar Tarf Vadgaon,Hatkanangale,Kolhapur,Pvt","VATHAR, NEAR PUNE- BANGALORE HIGHWAY, Hatkanangale, Kolhapur- 416112",416112.0,16.60630039894737,74.30376235873685,9890712749.0,100,Corporate,
151,28,Ashta Multispeciality Hospital,"341 Ashta Islampur road, Ashta Sangli 416301",416301.0,16.95,74.43,9422532722.0,30,Corporate,
152,20,"Ashtavinayak hospital and ICU, Nanded",Doctors Lane Nanded,431601.0,20.554431,74.512024,7448068597.0,30,Corporate,
153,15,Ashwinee Hospital and Research Center Private Limited,"767 KH/1, Near Venus Corner, Konda Oal, Karvir, Kolhapur-416001",416001.0,16.60630039894737,74.30376235873685,9420134252.0,47,Corporate,
154,31,Ashwini Multispeciality Hospital Barshi,"Nalawade Plot Kurduwadi Road Barshi, Near by Nikita Hotel, Barshi, Solapur-413401",413401.0,18.19855,75.68201,9373893246.0,30,Corporate,
155,31,"Ashwini Rural Medical College, Hospital & Research Centre, Kumbhari Tal South Solapur Dist Solapur","New Bypass Rd, Kumbhari, Maharashtra?%27,%27HSI4668%27)",413006.0,17.6500057,75.988404,8975772086.0,300,Corporate,
156,35,Asian Institute of Medical Sciences,"72,MIDC MilapnagarDombivli, Maharashtra?%27,%27HSP131211542%27)",421203.0,19.2148889,73.1058889,9930227687.0,250,Corporate,
157,15,"Asian Multispeciality Hospital & Research Centre,Karvir,Kolhapur,Pvt","1634 B, 2 ND LANE, LAXMIPURI, KOLHAPUR- 416002",416002.0,16.60630039894737,74.30376235873685,9765686292.0,32,Corporate,
158,1,Asian Noble Hospital Pvt Ltd,Premdan Chowk Manmad road Savedi Premdan Chowk,414003.0,19.1162222,74.7353611,9822451670.0,74,Corporate,
159,22,Astha Multispeciality Hospital Pimpalgaon,"47,pimpalgaon,ghodke nagar ,rucha hotel,NASHIK",422209.0,20.37015,73.7694,9604199911.0,40,Corporate,
160,15,Athaayu Multispecialty hospital,"44 - A,Ujalaiwadi, Kolhapur,Near Vishwakarma Industries Vidyanagar,KOLHAPUR",416001.0,16.60630039894737,74.30376235873685,9535184042.0,0,Corporate,
161,25,"Aundh Institute of Medical Science , Aundh","AUNDH SQUARL,AUNDH,PUNE",411067.0,18.563398,73.812891,9921830373.0,101,Corporate,
162,3,Axon Multispeciality Superspeciality and critical care Hospital,Near Prabhas Talkis Amravati - 444601,444601.0,20.9298611,77.7523056,9730314231.0,60,Corporate,
163,29,B J KATKAR HOSPITAL P LTD,"316 & 317,vaduj,Dahiwadi road,OPP. ST DEPOT,SATARA",415506.0,17.8150193,74.0894838,9881034059.0,52,Corporate,
164,17,B Y L Nair Hospital,,,19.446040649122807,72.36373664912281,,1229,Government,MCGM
165,1,BADE MULTISPECALITY HOSPITAL,"BADE MULTISPECALITY HOSPITAL,SHEVGAON,NEVASA ROAD,DNYANESHWAR ROAD,AHMADNAGAR",414502.0,19.3,75.2,9421944365.0,50,Corporate,
166,11,"BAHEKAR SUPERSPECIALTY HOSPITAL & RESEARCH CENTRE A UNIT OF GONDIA CARE HOSPITAL, GONDIA","7,Govindpur Road, Civil Lines,Bahekar Nursing Home,Gondia",441601.0,21.484894,80.251647,9370711255.0,50,Corporate,
167,17,BAI JERBAI WADIA HOSPITAL FOR CHILDREN & NOWROSJEE WADIA MATERNITY HOSPITAL,,,19.446040649122807,72.36373664912281,,604,Corporate,
168,27,BAI RATANBAI GHARDA HOSPITAL,"SR NO 110, HISSA NO12A,15A, 15B,LAVEL,NAVANAGAR,RATNAGIRI",415708.0,17.6529,73.4768,7391081075.0,30,Corporate,
169,35,BAI RUKMINI HOSPITAL,"Bhoiwada, Kalyan, Maharashtra?%27,%27HSI71083%27)",421301.0,19.5353,76.1449,9867424007.0,100,Government,
170,33,BAJAD HOSPITAL PRASUTIGRUH AND BAL RUGNYALAYA,"1,MANTRI PARK WASHIM,OPPOSITE ZP SCHOOL WASHIM",444505.0,20.17,77.17,9822601078.0,30,Corporate,
171,24,BALAJI HOSPITAL,"RANI LAXMIBAI ROAD, 431401",431401.0,19.269567,76.774114,9766491515.0,10,Corporate,
172,8,BALAJI HOSPITAL,"101,SARAI WARD OPP ZILLA PARSHAD MAIN ROAD, NEAR BANK OF INDIA, 442401",442401.0,19.9465278,79.2985556,7506705729.0,40,Corporate,
173,29,BALAJI SHRIRATHA HOSPITALS PVT LTD,"09 SATARA, YASHODA NAGAR,BEHIND FERN HOTEL,SATARA,MUMBAI BANGLORE HIGHWAY NH4 SATARA %E2%80%93 415005",415005.0,17.660319906296852,74.14925630434783,7709684023.0,30,Corporate,
174,20,BALWANT SEVABHAVI SANSTHA VISHNUPURI NANDED SANCHALIT SAHAYOG MULTISPECIALITY HOSPITAL VISHNUPURI NANDED,"VISHNUPURI,NANDED",431606.0,19.2,77.4,9923790009.0,30,Corporate,
175,25,BAPAT MULTISPECIALITY HOSPITAL,"A/36 MUNJABA VASTI, VISHRANTWADI, NEAR GANPATI MANDIR, DHANORI, Pune-411015",411015.0,18.56578105076228,73.89409255768733,9804898898.0,33,Corporate,
176,15,"BARDESKAR HOSPITAL, GADHINGLAJ","2379,GADHINGLAJ,AJARA ROAD GADHINGLAJ,NEAR PRATHANA HOTEL,",416502.0,16.60630039894737,74.30376235873685,9273337666.0,30,Corporate,
177,29,BEL AIR HOSPITAL WAI,"47/2B, SIDHANATHWADI, WAI PANCHAGANI ROAD ,WAI ,  SATARA ,412803",412803.0,17.879632,74.010916,2167299200.0,73,Corporate,
178,35,BHAGWAN MAHAVIR HOSPITAL,"PARUL  ROAD, BHIWANDI - 421303",421303.0,19.5859086,73.1659378,9004414466.0,60,Corporate,
179,35,BHAKTIVEDANTA HOSPITAL,"Srishti Sec-1,Mira Road Bhaktived Near royal college",401107.0,19.1922325,73.0637706,7391040161.0,200,Corporate,
180,34,BHANGDE HOSPITAL AND MATERNITY HOME PUSAD,"NAGEENA CHOWK PUSAD,MAIN ROAD PUSAD,YAVATMAL",445204.0,19.9088611,77.5718055,9422866348.0,30,Corporate,
181,13,BHIRUD HOSPITAL,"JAMNER ROAD,JALGAON",424206.0,20.76134140182927,74.84583924085365,9372335833.0,50,Corporate,
182,35,BHIWANDI DIALYSIS CENTRE,"KHATOONBI KAZI NURSING HOME,BHUSAR MOHALLA,BHIWANDI HINDUSTANI MASJID",421302.0,19.2103751,73.0464259,9326363011.0,7,Corporate,
183,25,BHRATRATNA DR BABASAHEB AMBEDKAR CANTONMENT GENERAL HOSPITAL,S NO 63 KHADKI BAZAR KASAMALI JUMBO MARG NEAR MEHTA TOWER HAVELI PUNE 411003,411003.0,18.5505833,73.8685278,9850953426.0,100,Government,
184,2,BHUIBHAR MULTISPECIALITY CLINIC,"Plot No: 6, Tilak Park Road, Behind Mukund Mandir, 444001",444001.0,20.71,77.0,83800262115.0,5,Corporate,
185,33,BIBEKAR HOSPITAL,"338/5,NEAR VITTHALWADI,NAGARPARISHAD ROAD,",444505.0,20.17,77.17,9423127878.0,50,Corporate,
186,22,BIRSA MUNDA MEDICAL HUB NASHIK,"112, OMKAR NAGAR, KISHOR SURYAWANSHI ROAD, 422004",422004.0,20.2041737,73.8271949,9422262374.0,100,Corporate,
187,28,BREATHEWELL MULTISPECIALITY HOSPITAL,"PARSHWANATHNAGAR, OPP.SIDDHIVINAYAK HERO SHOROOM, MIRAJ SANGLI ROAD, SANGLI-416410",416410.0,17.0348056,74.6018333,7709887799.0,50,Corporate,
188,7,BULDANA MULTISPECIALITY HOSPITAL,"ARAS LAY OUT, JAMBHURN ROAD, Buldhana 443001",443001.0,20.5336389,76.1794722,9096354891.0,95,Corporate,
189,2,Baban Multispecialty Hospital,"Ashirwad Nagar,Murtijapur,AKOLA",444107.0,20.71,77.39,7887917675.0,44,Corporate,
190,28,Bachpan Balrugnalay and Shriraj Hospital,Kanya Shala Road Paranjape Colony Palus Sangli 416310,416310.0,17.13,74.48,9657162077.0,15,Corporate,
191,11,Bai Gangabai Women Hospital Gondia,Infront of Indira gandhi stadium Gondia,441601.0,21.484894,80.251647,9923770959.0,120,Government,DMER
192,17,Bal Gangadhar Kher Municipal Hospital,,,19.446040649122807,72.36373664912281,,30,Government,
193,33,Balaji Bal Rugnalay,"NAGAR PARISHAD ROAD,OPP. OF VITTHALWADI,WASHIM",444505.0,20.17,77.17,7709821945.0,30,Corporate,
194,17,Balaji Heart Hospital and Diagnostic Centre,,,19.446040649122807,72.36373664912281,,100,Corporate,
195,11,Balaji Nursing Home,"170,NEAR LIC OFFICE GANESH NAGAR GURUNANAK WARD ,NEAR LIC OFFICE GANESH NAGAR ,LIC OFFICE,GONDIYA",441601.0,21.484894,80.251647,7182236861.0,50,Corporate,
196,1,Balasaheb Deshpande Hospital,"Near Asha Theatre, Ahilyanagar, Maharashtra- 414001",414001.0,19.1627778,77.3060556,9561004609.0,100,Government,
197,28,Bandgar Hospital,"A/p Vita, Tal. Vita, Dist. Sangli",415311.0,17.27,74.67,9405408044.0,30,Corporate,
198,13,Bapji Jeevandeep Multispeciality Hospital,"Hirapur Road,Bapji Mandir,Chalisgaon,JALGAON",424101.0,20.4613641,74.9898334,7972833428.0,31,Corporate,
199,25,Baramati hospitals Pvt Ltd,"138,39.40,BARAMATI HOSPITAL,INDAPUR ROAD?%20BARAMATI,RINGROAD%20BARAMATI,PUNE%27,%27HSI44627%27)",413102.0,18.150009,74.583291,9665484551.0,120,Corporate,
200,19,Baraskar Hospital and Research Center,"Crystal Plaza, 276, Central Bazar Road, Ramdaspeth, Nagpur, Maharashtra?%27,%27HSI5800%27)",440010.0,21.12566667,79.05777778,7122452105.0,20,Corporate,
201,23,Barate Accident & Maternity Hospital,"Sambhaji Nagar , D.I.C.Road Chh.Sambhajiraje Marg , - 413501",413501.0,18.408779,76.559758,8329668532.0,30,Corporate,
202,35,Bethany trust- Bethany Hospital,"plot no 2,pokhran road no 2,near glaxo,thane west,",400610.0,19.23125,72.9737778,9870035333.0,190,Corporate,
203,19,Bhagat Multispeciality hospital,"CIVIL LINE SAONER,SAONER,CIVIL LINE,NEAR STATE BANK OF INDIA,NAGPUR",441107.0,21.305863,78.947739,9373547106.0,30,Corporate,
204,18,Bhagawati Hospital Borivali,,,19.11878330833333,72.87393688666666,,110,Government,MCGM
205,20,Bhakti Multispecialty Hospital & Diagnosis Center,"RAILWAY STATION ROAD, DOCTOR LINE GHAMODIYA FACTORY,Nanded",431601.0,20.554431,74.512024,9422189574.0,30,Corporate,
206,35,Bhaktivedanta hospitals shri bhagwan mahadev sambare hospital,"4,zadpoli,WADA VIKRAMGAD ROAD,omkar blind school,",401605.0,19.8541106,73.0346244,8879666314.0,50,Corporate,
207,3,"Bhamkar Multispeciality Hospital & Research Institute, Paratwada","Rajashri Nagar , Amravati Road, Paratwada, In front of Finlay Mill - 444805",444805.0,20.5364167,76.1811389,9157769191.0,30,Corporate,
208,25,Bhandare Hospital,"sruvey no. 32/3,Behind S.T stand, Baramati.ring road no.5,PUNE",413102.0,18.150009,74.583291,9860406608.0,30,Corporate,
209,3,Bhansali Multispeciality hospital,"Vakil line, near police station, Amravati ,Paratwada",444805.0,20.5364167,76.1811389,9423124378.0,40,Corporate,
210,35,"Bharat Ratna Indira Gandhi Hospital , Miraroad","Poonam Sagar Rd, Poonam Sagar Complex, Mira Road, Mira Bhayandar, Maharashtra?%27,%27HSI70085%27)",401107.0,19.1922325,73.0637706,8422811481.0,50,Government,
211,25,Bharat Ratna Late Rajeev Gandhi Hospital,"Deccan College road, Nawanagar, Salwe Nagar, Yerawada, Pune-411006",411006.0,18.56025,73.89202778,9689931352.0,30,Government,
212,25,Bharati Hospital and Research Center,"Bharati Hospital & Research Center, Pune Satara Road, Near Katraj Dairy",411043.0,18.4653611,73.8551111,9225579941.0,831,Corporate,
213,28,"Bharati Vidyapeeth Deemed University Medical College & Hospital, Sangli.","Wanlesswadi, Miraj Sangli_Miraj Road",416414.0,16.86,74.8,9225813155.0,750,Corporate,
214,17,"Bharatratna Dr. Babasaheb Ambedkar Mun. Gen. Hospital, Kandivali (W)",,,19.446040649122807,72.36373664912281,,400,Government,MCGM
215,9,Bhatwal Surgical & Maternity Hospital,"111/A,Agrawal Nagar,Malegaon Road,DHULE",424001.0,20.9254213,74.7395367,9325028629.0,30,Corporate,
216,25,"Bhigwan Medicare Hospital Pvt Ltd,Baramati,Pune,Pvt","MADANWADI, BARAMATI BHIGWAN ROAD, BARAMATI, PUNE-413130",413130.0,18.24175,74.70862,9856101101.0,30,Corporate,
217,25,Bhimashakar hospital,"133/9,wadgaon kashimbeg (Walunjwadi),Manchar Ghodegaon Road,Near nighotwadi Phata?%27,%27HSI57850%27)",410503.0,19.034215,74.2211,7517252525.0,50,Corporate,
218,13,Bhole Vighnaharta Multispeciality Hospital,"Chorwad naka Bhaskar Appa Complex Parola, Behind state bank of India, 425111",425111.0,20.80425,75.2846,9423495402.0,49,Corporate,
219,5,"Bhure hospital,Tumsar","Indiranagar,Bhandara Road,Near bus stand,BHANDARA",441912.0,21.2745,79.802799,9422132688.0,30,Corporate,
220,7,Bhusari hospital,"25, Buldhana, Near Hanuman Temple, 443001",443001.0,20.5336389,76.1794722,9767699623.0,31,Corporate,
221,2,Bihade Maternity and Multispeciality Hospital,"LRT COLLAGE ROAD, Amankhan %E2%80%93 444001",444001.0,20.71,77.0,9922445964.0,30,Corporate,
222,26,Birmole Hospital,"Unnamed Road, HOC Colony, Panvel, Navi Mumbai, Maharashtra?%27,%27HSP291211574%27)",410206.0,19.077,73.24,9820083124.0,50,Corporate,
223,25,"Bliss Multispeciality Hospital,Haveli,Pune,Pvt","1 ST FLOOR GAIKWAD GALAXY, Shraddha Nagar, Ambedkar Nagar, OPPOSITE MSEB OFFICE KONDHWA (BK) PUNE 411048",411048.0,18.56578105076228,73.89409255768733,7722020404.0,35,Corporate,
224,25,"Bobade Accident Hopital,Baramati,Pune,Pvt","HARIKRUPA NAGAR ,OPP MARKET YARD , INDAPUR ROAD, BARAMATI, PUNE-413102",413102.0,18.150009,74.583291,9422028331.0,25,Corporate,
225,35,"Bolinj General Hospital, Virar West",,,19.295112535714285,73.01962990809524,,100,Government,
226,35,Borneo Mother & Child Care Hospital,"Larkins 315, Namdeo Wadi Marg, Banacha Pada, Panch Pakhdi, Thane West, Thane, Maharashtra 400602",400602.0,19.1993056,72.9793333,8806668655.0,50,Corporate,
227,22,Borneo Mother and Child Care Hospital,"5th and 6th floor, Archit Sai Avenue, Shree Vallabh Nagar, Behind Old Chhan Hotel Mumbai Naka, Nashik %E2%80%93 422001",422001.0,20.0082,73.80645,9822502295.0,50,Corporate,
228,30,Br Nath Pai Shikshan Sanstha Sindhudurgs Lt Yashwantrao Naik Rural Hospital and Research Centre Nerur,"1836, Nerur Dewoolwada, Nerur, Kudal- Walawal Road, Sindhudurg %E2%80%93 416525",416525.0,16.0120833,73.6431027,9404919021.0,100,Corporate,
229,18,Brahma Kumaris GHRC managing BSES MG Hospital,,,19.11878330833333,72.87393688666666,,106,Corporate,
230,11,Bramhankar Hospital,"MAMA CHOWK,NEAR NUTAN SCHOOL,GONDIA",441601.0,21.484894,80.251647,7498432802.0,30,Corporate,
231,26,CALADRIUS MULTISPECIALITY HOSPITAL,"AT post devicha pada, Taloja MIDC, CHINDHRAN ROAD %E2%80%93 410208",410208.0,19.032592,73.08539,9029609601.0,51,Corporate,
232,22,CANCER CENTERS OF AMERICA PRIVATE LTD,"PLOT NO-02 S.NO. 113/2/A , INDIRA NAGAR  , WADALA SHIWAR, Sawata Mali Rd, 422011",422011.0,19.988439,73.720725,7620778324.0,100,Corporate,
233,19,CARDION HOSPITAL,"NEAR DINANATH HIGH SCHOOL, KHARE MARG, TIKEKAR ROAD DHANTOLI 440012",440012.0,21.41470797226994,78.84095818131902,9545400115.0,41,Corporate,
234,22,CAREFORTE CHILDRENS HOSPITAL,"NASHIK ROAD STAR PLUS COMPLEX OPP DURGA GARDEN , NASHIK , 422101",422101.0,19.968664,73.831608,9422245698.0,24,Corporate,
235,26,CELLCURE CANCER CENTRE PVT LTD,"Ground & First Floor, Tulsi Prerna CHS Ltd,Plot no 9, Sector 1, Khanda Colony, New Panvel ( W ) - 410206",410206.0,19.077,73.24,9769929797.0,16,Corporate,
236,31,CENTERAL MULTISPECIALITY HOSPITAL AND REASERCH CENTER,"1st Floor, Ganesh Peth Shopping Center, Mangalwar Bazar, Opp.  Chadchankar Petrol Pump, Solapur-413001",413001.0,17.6659167,75.8943333,7038080533.0,50,Corporate,
237,25,CHAKAN CRITICARE HOSPITAL PVT LTD,"1152, SHIKRAPUR ROAD,OPP.VISHAL GARDEN,CHAKAN, Khed, Pune-410501",410501.0,18.707487,73.977126,9822146916.0,100,Corporate,
238,13,CHANDAK EYE HOSPITAL,"10,11 OPP. BHASKAR MARKET M J COLLEGE ROAD 425001",425001.0,20.46428,75.004181,9823590261.0,10,Corporate,
239,9,CHANDRAKANT KELE MEDICAL AND RESEARCH FOUNDATION,"SHRI DINESH COMPLEX NEHRU CHOWK DEOPUR ,AGRA ROAD, DHULE?%27,%27HSI49486%27)",424002.0,20.9042271,74.7748909,9422285468.0,7,Corporate,
240,19,CHAUDHARY HOSPITAL ( FRACTURE ACCIDENT & ORTHOPAEDIC NURSING HOME ),,440009.0,21.41470797226994,78.84095818131902,,50,Corporate,
241,15,CHAVAN HOSPITAL,"1216 NEAR KALE CANTEEN, MAIN ROAD, GAGANBAWADA ROAD, PANHALA, KOLHAPUR-416205",416205.0,16.60630039894737,74.30376235873685,7822820971.0,15,Corporate,
242,25,CHETNA HOSPITAL,"GP 116 VRINDAVAN SOCIETY AREA, NEAR ROTARY CLUB MIDC G BLOCK, CHINCHWAD, PUNE CITY, Pune-411019",411019.0,18.6395,73.79586111,8554990324.0,48,Corporate,
243,21,CHHATRAPATI MULTISPECIALITY HOSPITAL,"278/297,C B TOWN OPPOSITE VILASRAO DESHMUKH TRUCK TERMINAL,425412",425412.0,21.3122,74.21885,9422286647.0,100,Corporate,
244,35,CHHATRAPATI SHIVAJI MAHARAJ HOSPITAL,KALWA THANE BELAPUR ROAD,400605.0,19.1934722,72.9898333,9769007570.0,500,Government,
245,20,CHIDRAWAR SUPERSPECIALITY HOSPITAL,DOCTOR LANE KALAMANDIR ROAD 431601,431601.0,20.554431,74.512024,9890091406.0,20,Corporate,
246,34,CHINTAMANI HOSPITAL,"CHINTAMANI HOSPITAL.6.NEAR BANK OF INDIA,38 B,DATTA CHOWK ,YAVATMAL",445001.0,20.4131111,78.1337777,9373770923.0,25,Corporate,
247,35,CHINTAMANI HOSPITAL MULTISPECIALITY & TRAUMA UNIT,BAJARAPETH PADGHA %E2%80%93 421101,421101.0,19.3665278,73.1746389,7387822275.0,30,Corporate,
248,25,CHINTAMANI HOSPITAL RESEARCH CENTRE PVT LTD,"INAMDAR VASTI, KOREGAON MUL , SOLAPUR ROAD , HAVELI , PUNE - 412202",412202.0,18.46266,74.176474,9822051422.0,49,Corporate,
249,14,CHIRANJEEV BAL RUGNALAYA,"SHREE COLONY?%20J%20E%20S%20COLLEGE%20ROAD%20R.P.ROAD,Jalna%27,%27HSI2268%27)",431203.0,19.84,75.89,9923104151.0,30,Corporate,
250,31,CHIRANJEEV HOSPITAL PANDHARPUR,"Bhaktimarg, Near Bajaj Blood bank,Pandharpur, 413304 District Solapaur",413304.0,17.794052,75.35725,9822148150.0,50,Corporate,
251,25,CHIRAYU CHILDERNS HOSPITAL,"MARKET YARD ROAD, BARAMATI, PUNE-413102",413102.0,18.150009,74.583291,9595423642.0,30,Corporate,
252,35,CHIRAYU CHILDRENS HOSPITAL AND RESERCH CENTRE,,,19.295112535714285,73.01962990809524,,49,Corporate,
253,34,CHIRAYU CRITICARE CENTER,"DATE COLLEG ROAD, NEAR JYOTI MANGAL KARYALAYA,JOTI MANGALKARYALAYA,YAVATMAL 445001",445001.0,20.4131111,78.1337777,8080684949.0,20,Corporate,
254,12,CHIRAYU HOSPITAL HINGOLI,"4,8,9,11,12, CHOUDHARI NAGAR, NANDED ROAD, HINGOLI-431513",431513.0,77.1476,19.79908,9922719494.0,30,Corporate,
255,31,"CHIRAYU PAEDTRIC SUPER SPECILAITY AND MULTISPECIALITY HOSPITAL,PANDHARPUR,SOLAPUR,PVT .","64/13, Near LIC office, Bhakti Marg Pandharpur, Solapur- 413304",413304.0,17.794052,75.35725,9096996655.0,35,Corporate,
256,5,CHOLE EYE HOSPITAL,"Sainath Nagar, Teachers Colony, Ashrafi Nagar, Bhandara, Maharashtra 441906",441906.0,21.1625,79.655741,9422819586.0,10,Corporate,
257,19,CHOUDHARY MULTISPECIALITY HOSPITAL,"L-1J. N. ROAD HANUMAN NAGAR ,KAMPTEE -441002",441002.0,21.41470797226994,78.84095818131902,8469951706.0,30,Corporate,
258,4,CIIGMA INSTITUTE OF MEDICAL SCIENCES PVT. LTD(CIIGMA NURISNG HOME),,,19.944847311671925,75.41925964069401,,30,Corporate,
259,19,CITY HOSPITAL,"2725, RANALA, KAMPTEE ROAD, 441001",441001.0,21.227531,79.190083,9325945952.0,100,Corporate,
260,20,CITY HOSPITAL,"M.C HOUSE NO.1-169/15, WADIYA FACTORY, SHIVAJI NAGAR ROAD %E2%80%93 431602",431602.0,19.2,77.4,9823385538.0,50,Corporate,
261,27,CIVIL HOSPITAL RATNAGIRI,Ratnagiri Bus stand road Statue of Babasaheb Ambedkar,415612.0,17.01779,73.27482,9890981460.0,200,Government,DHS
262,8,COAL CITY HOSPITAL,"101, MUL ROAD, BANGALI CAMP CHOWK, Chandrapur 442401",442401.0,19.9465278,79.2985556,9822204464.0,50,Corporate,
263,19,CPH Center Point Hosptial Medical Research Institute Pvt. Ltd.,PLOT NO. 2 MEDICAL SQUARE NEAR RAJABAKSHA TEMPLE NEAR GOVERNMENT MEDICAL COLLEGE 440009,440009.0,21.41470797226994,78.84095818131902,9372383192.0,50,Corporate,
264,35,CREDENCE CORE HOSPITAL,"CLOUD 36 BUILIDING ,PLOT NO 6 ,SECTOR 11 NEW PALM BEACH ROAD GHANSOLI, NAVI MUMBAI 400701",400701.0,19.1243889,72.9976111,9619302238.0,41,Corporate,
265,29,CRITI CARE MULTISPECIALITYT HOSPITAL VADUJ,"Sr no 696/1 plot no 32/33 near LIC office, vaduj, old siddeshwar kuroli road vaduj - 415506",415506.0,17.8150193,74.0894838,9511822396.0,30,Corporate,
266,4,CSM Nursing Home,,,19.944847311671925,75.41925964069401,,30,Corporate,
267,20,CURE MAX MULTISPECIALITY HOSPITAL AND CRITICAL CARE CENTER,"HINGOLI GATE, NEAR UNDER BRIDGE, OLD AMBULGEKAR HOSPITAL %E2%80%93 c",431603.0,19.2,77.4,9422188933.0,45,Corporate,
268,17,Cama and Albless Hospital,,,19.446040649122807,72.36373664912281,,505,Government,DMER
269,19,Cancer Treatment services Hyderabad Pvt ltd,"C-1/1,MIDC HINGNA,MIDC ROAD,Opp MIA Centre for Sports and Recreation,NAGPUR",440028.0,21.41470797226994,78.84095818131902,7337385852.0,100,Corporate,
270,15,Care Hospital,"CARE HOSPITAL,700,KOROCHI,INDIRA NAGAR,INDIRA NAGAR KOROCHI,KOLHAPUR",416109.0,16.60630039894737,74.30376235873685,8432443838.0,50,Corporate,
271,25,Care And Cure Multispeciality Hospital and Diagnostic Center,"Sr. No 183/B/1/1 Pipe Line Road Shinde Vasti , Ravet, Haveli, Pune-412101",412101.0,18.7693514,73.4041588,7620065407.0,35,Corporate,
272,25,Care Multispec Iality Hospital,"pcmctld.-01 112-1003, RUPINAGAR , PCMC,  Haveli, PUNE-411062",411062.0,18.665889,73.778424,7709123192.0,31,Corporate,
273,25,Care Multispecialty hospital,"Gat. No. 602, Property No. 39 and 40,Pune Nagar Road, Near Bazar Tal",412108.0,18.5010616,73.5137574,8007771999.0,50,Corporate,
274,11,Central Hospital & Critical Care Centre_Gondia,"Plot No. 3,4,5,7,8,9, GONDIA, SUKHDEO WARD, GADDA TOLI %E2%80%93 441614",441614.0,21.555989,80.156813,9637883589.0,100,Corporate,
275,4,Century Multispeciality Hospital (Aurangabad) Pvt.Ltd.,,,19.944847311671925,75.41925964069401,,49,Corporate,
276,31,Ch.Shivaji Maharaj Sarvopachar Rugnalaya Solapur,"B-1 Building Qtr 12, 2nd Floor, North, South Sadar Bazar, Solapur, Maharashtra",413003.0,17.6659167,75.8943333,9665835732.0,733,Government,DMER
277,22,"Chaitanya Accident &Trauma Care Center, Malegaon","OLD AGRA ROAD, MOTIBAUG NAKA,OPP. NANAVATI PETROL PUMP",423203.0,20.5533619,74.5080312,8600088806.0,21,Corporate,
278,25,Chandumama Sonawane Maternity Home,"Jawaharlal Nehru Road, Mahatma Pule Peth, At kashewadi, Pune-411042",411042.0,18.5004722,73.8614167,8856036290.0,80,Government,
279,34,Chavan hospital & Critical care center,"Near Shani Mandir,State Bank Road,NEAR SHANI MANDIR,YAVATMAL",445204.0,19.9088611,77.5718055,9822369896.0,30,Corporate,
280,3,Chimote Hospital & Critical Center,Paratwada -444805,444805.0,20.5364167,76.1811389,9960705368.0,30,Corporate,
281,23,Chincholi Hospital Omerga.,"Arogya Nagar,Omerga,OSMANABAD",413606.0,17.8319935,76.6252018,9890903554.0,50,Corporate,
282,27,Chintamani Hospital,"X-50, Zadgaon, Uydamnagar, ratnagiri, MIDC Zadgaon, near Mahindra Workshop %E2%80%93 415612",415612.0,17.01779,73.27482,9422051708.0,50,Corporate,
283,20,Chintamani Superspecialty hospital,"In Front Of Ayurved College, Vazirabad Nanded",431601.0,20.554431,74.512024,9960678176.0,30,Corporate,
284,23,Chirayu Hospital,"Ram Nagar Osmanabad,Aurangabad Road,osmanabad,Near Central?%20Building,OSMANABAD%27,%27HSI46905%27)",413501.0,18.408779,76.559758,9422906422.0,30,Corporate,
285,29,Chirjeevan Hospital & Research Centre,"5,RING ROAD LAXMINAGAR PHALTAN",415523.0,17.9844577,74.4360354,8600019100.0,50,Corporate,
286,30,Chitari Hospital & Criticare Sawantwadi,"225/A , Kolgaon , Bhomwadi - 416510",416510.0,15.9108056,73.8230833,9168550821.0,30,Corporate,
287,28,"Chopade Memorial Hospital,Miraj ,Sangli,Pvt","133, Sangli Miraj Road, South Shivaji Nagar, Sangli-416416",416416.0,17.0348056,74.6018333,9371024224.0,40,Corporate,
288,22,Chopda Medicare & Research Centre Pvt. Ltd.,"3 / 5,Laxmi Nagar,Patil Lane No.1,Canada Corner,",422005.0,19.988439,73.720725,8805028242.0,50,Corporate,
289,7,Chopde Hospital,"101,40 Bigha,Vyayamshala street,Near Yuvshakti Vyayam shala,BULDHANA",443101.0,20.7078,76.2097508,9422915256.0,30,Corporate,
290,15,"Choudhari Hospital,Hatkanangale,Kolhapur,Pvt","2008A/30, JAYSINGPUR, KOLHAPUR ROAD, BEHIND NATRAJ HOTEL, Kolhapur- 416101",416101.0,16.60630039894737,74.30376235873685,9850509877.0,30,Corporate,
291,28,"Chougule Hospital,Walwa,Sangli,Pvt","85, Omkar colony, Islampur,  Sangli-415409",415409.0,17.02,74.28,9850007070.0,50,Corporate,
292,8,"Christ Hospital,Chandrapur","910,Tukum,Tadoba Road,Near St. Thomas Catholic Church,CHANDRAPUR",442401.0,19.9465278,79.2985556,7350214932.0,100,Corporate,
293,2,Citi Hospital,"GG Agarkar Marg, Near railway station, Ramdaspeth, Akola, Maharashtra",444001.0,20.71,77.0,8411973991.0,40,Corporate,
294,31,City Accident Hospital,"4739/24, datta nagar , Near Uma Collage Pandharpur, Solapur- 413304",413304.0,17.794052,75.35725,9028507810.0,30,Corporate,
295,29,City Hospital,"Plot No. 277, Shaniwar Peth, Near Rajlaxmi Teatier - 415110",415110.0,17.6881944,74.0068333,9209111260.0,30,Corporate,
296,10,"City Hospital Surgical and Critical Care, Gadchiroli","W7000320,KABRA BUILDING,DHANORA ROAD ,NEAR VAIBHAV HOTEL,GADCHIROLI",442605.0,20.057671,80.181995,9420750284.0,30,Corporate,
297,9,"City Superspeciality Hospital ,Dhule Gramin,Dhule","Main Road Deopur, Dhule Gramin, Dhule-424002",424002.0,20.9042271,74.7748909,9907742434.0,30,Corporate,
298,29,Civil Hospital,"Sadarbazar, Guruwar Peth, Satara, Maharashtra",415002.0,17.6767,74.00425,9422029973.0,235,Government,DHS
299,26,Civil Hospital Alibag,"Near Zila Parishad, Alibag",402201.0,18.6418056,72.8723611,9420056640.0,200,Government,DHS
300,24,Civil Hospital Parbhani,"Subhash Rd, near Sharda Vidyalaya, Shastri Nagar, Parbhani, Maharashtra?%27,%27HSI3783%27)",431401.0,19.269567,76.774114,9421796468.0,416,Government,DHS
301,1,Civil hospital Ahmednagar,"Nadar manmad road,patrakar chauk,Ahmadnagar",414001.0,19.1627778,77.3060556,9960170845.0,250,Government,DHS
302,7,Criticare Centre And Multispeciality Hospital,"Nandura Road Khamgaon,KHAMGAON BULDHANA 444303",444303.0,20.348496,76.113151,7843051412.0,35,Corporate,
303,26,Criticare Lifeline Hospital,"opp. PARVATI ANGAN, Sector 19, Kamothe, Panvel, Navi Mumbai, Maharashtra 410209",410209.0,19.016,73.096,9967448041.0,98,Corporate,
304,28,"Crystal Panacea Multispeciality Hospital,Palus,Sangli,Pvt","Near Old Bus Stand, Kanya Shala Road, Opp Marathe Hospital, Palus, Sangli-416310",416310.0,17.13,74.48,9765280918.0,30,Corporate,
305,31,"DAKSHATA MULTISPECIALITY HOSPITAL,Sangola,PVT,Solapur","JAYBHAVNI CHOWK,SANGOLOA,SOLAPUR",413307.0,17.405468,75.136661,9730116817.0,50,Corporate,
306,7,DALVI HOSPITAL CHIKHALI,"SAINAGAR, BEHIND BUS STAND, 443201",443201.0,20.229725,76.239946,9922409260.0,30,Corporate,
307,14,"DASHRATHBABA CHARITABLE HOSPITAL, BHOKARDAN","MHADA ROAD, BHOKARDAN MARKET COMITTEE YARD 431114",431114.0,20.254098,75.768988,7875236681.0,35,Corporate,
308,1,DATTA BAL RUGNALAY AND MULTISPECILITY HOSPITAL,"NEAR BUS STAND NAGAR ROAD JAMKHED , 413201",413201.0,18.72,75.31,8599992008.0,30,Corporate,
309,3,DAYASAGAR HOSPITAL,Plot No  11 2  GIRLS HIGH SCHOOL  CAMP ROAD  AMRAVATI  444602,444602.0,20.907,77.6026,9922421979.0,100,Corporate,
310,25,DECCAN HARDIKAR HOSPITAL,"1160/61, UNIVERSITY ROAD, Pune City, Pune-411005",411005.0,18.5275278,73.8505,7774064098.0,120,Corporate,
311,14,DEEPAK HOSPITAL,"Near Town hall Jalna,OLD JALNA",431203.0,19.84,75.89,9325821888.0,230,Corporate,
312,22,DEOGAONKAR HOSPITAL,"OLD PANDIT COLONY, NEAR K.T.H.M. COLLEGE, NASHIK %E2%80%93 422002",422002.0,20.00505,73.83675,8108149645.0,30,Corporate,
313,4,DEOGIRI HOSPITAL AND CRITICAL CARE CENTER,,,19.944847311671925,75.41925964069401,,30,Corporate,
314,4,DEOGIRI MULTISPCIALITY HOSPITAL,,,19.944847311671925,75.41925964069401,,30,Corporate,
315,22,DEOLALI SUPER SPECIALITY HOSPITAL,"DEOLALI?%20SUPER%20SPECIALITY%20HOSPITAL,MADOOR%20COMPLEX.,DEOLALI%20CAMP.%20LAM%20ROAD.%20DEOLALI%20CAMP,NEXT%20TO%20BHATIYA%20COLLEGE,NASHIK%27,%27HSI39125%27)",422401.0,19.922885,73.8465835,9960036999.0,30,Corporate,
316,9,DEORE ACCIDENT HOSPITAL AND PRATHAMESH CRITICAL CARE CENTER,"13,?%20DATTA%20MAINDIR%20DEOPUR,?%20OLD%20AGRA%20ROAD,?%20OPP%20MAHAJAN%20HIGH%20SCIOOL%27,%27HSP031111396%27)",424002.0,20.9042271,74.7748909,7588319527.0,50,Corporate,
317,25,DEOYANI MULTISPECIALITY HOSPITAL,"Dahanukar colony , Kothrud Lane no. 4 Near Cummins Circle",411038.0,18.5112222,73.8196667,9850811722.0,120,Corporate,
318,15,"DESAI HOSPITAL,Bhudargad,Kolhapur,Pvt","1st Floor, Sayaji Business Park, Gargoti, Bhudargad, Kolhapur -416209",416209.0,16.60630039894737,74.30376235873685,9764299055.0,50,Corporate,
319,2,DESHMUKH MULTISPECIALITY HOSPITAL AKOLA,"RAMDASPETH, BIRLA ROAD, OPP. SBI BRANCH RAMDASPETH Akola - 444005",444005.0,20.73,77.08,7242410884.0,45,Corporate,
320,26,DESHMUKH NURSING HOME,"AT. POST :MAHAD , SALIWADA NAKA , Raigad - 402309",402309.0,18.1080399,73.4532453,7057174182.0,30,Corporate,
321,29,DEVA ACCIDENT AND ORTHOPEDIC HOSPITAL,"VADUJ, DAHIWADI ROAD - 415506",415506.0,17.8150193,74.0894838,9763464373.0,10,Corporate,
322,22,DEVAKI HOSPITAL,"plot No. MUNCIPAL SHOPING COMPLEX,IUDP,Bhavani Chauk,BHAVANI CHAOK -423104",423104.0,20.329959,74.243788,9970743064.0,30,Corporate,
323,15,DHANVANTARI FRACTURE ORTHOPAEDIC AND ARTHROSCOPY CENTRE,"1717 B, RAJARAMPURI 7TH LANE, NEAR SARASWAT COOP BANK, KOLHAPUR-416008",416008.0,16.68958333,74.24847222,8408986060.0,30,Corporate,
324,1,DHANVANTARI MULTISPECIALITY HOSPITAL,"TAJANE MALA,NEW NAGAR ROAD,Ahmadnagar",422605.0,19.612829,74.101239,9822397574.0,66,Corporate,
325,26,DHANVANTARI NURSING HOME,KARJAT NANA MASTER NAGAR MUDRE RAIGAD 416115,416115.0,16.40594444,74.28052778,9822197996.0,30,Corporate,
326,25,"DHANWANTARI HOSPITAL AND CRITICARE CENTER,Purandhar,Pune,Pvt","PUNE BARAMATI ROAD, SASWAD, PURANDHAR, PUNE- 412301",412301.0,18.366799,73.974094,9860383840.0,30,Corporate,
327,15,DHARMRAJ MULTISPECIALITY HOSPITAL,"MAIN ROAD,KALE KOLHAPUR,",416205.0,16.60630039894737,74.30376235873685,9420399112.0,30,Corporate,
328,6,DHOOT HOSPITAL,"Sahyog Nagar opposite Vaidyanath bank DP road, Beed",431122.0,19.839128,75.890447,7774033093.0,30,Corporate,
329,31,"DHOTRE MULTISPECIALITY HOSPITAL,Akluj,Solapur,PVT","95/A, 100 FOOT BYPASS ROAD, NEAR GIRZANI BRIDGE, AKLUJ, Malshiras, Solapur-413101",413101.0,17.477512,75.298578,7887439297.0,35,Corporate,
330,13,DISTRICT WOMEN AND CHILD HOSPITAL JALGAON,"Mohadi road, WH mohadi jalgaon, 425002",425002.0,21.0276629,75.5715885,9890202033.0,100,Government,
331,2,DISTRICT WOMEN HOSPITAL AKOLA,"New Radhakisan Plots, Akola, Maharashtra?%27,%27HSI27925%27)",444001.0,20.71,77.0,8308984342.0,335,Government,DHS
332,8,DIXIT SUPERSPECIALITY HOSPITAL,"9651/2/B ARJUN TOWER,JATPURA 2, BIMBA GATE ROAD,NEAR DR AMBEDKAR SQUARE,442401",442401.0,19.9465278,79.2985556,9028295965.0,30,Corporate,
333,35,"DM Petit Muncipal hospital, Vasai West",,,19.295112535714285,73.01962990809524,,80,Government,
334,35,DR AJAYANS MULTISPECIALITY HOSPITAL,"PLOT NO 6 SECTOR 9, KOPARKHAIRANE, opp r f naik school - 400709",400709.0,19.1035,73.0044167,9870191967.0,41,Corporate,
335,1,DR ANBHULE HOSPITAL MULTISPECILITY,"132-133,SAVEDI,NAGAR MANMAD ROAD,PREMDAN CHOWK Ahamednagar-",414003.0,19.1162222,74.7353611,9922099995.0,50,Corporate,
336,22,DR BANGAR SPECIALTY HOSPITAL,"3181,GHOTI,SHRIRAMWADI",422403.0,19.63565,73.57093,9881310600.0,30,Corporate,
337,3,DR BARBDE HOSPITAL,"IRWIN SQUARE, CAMP ROAD - 444601",444601.0,20.9298611,77.7523056,9890127317.0,0,Corporate,
338,31,DR CHIDGUPKAR HOSPITAL PVT LTD,"Budhavar Peth, Solapur, Maharashtra",413001.0,17.6659167,75.8943333,9850888500.0,50,Corporate,
339,6,DR HARKAR ACCIDENT AND MULTISPECIALITY HOSPITAL,402  KADA ASHTI  NAGAR BEED ROAD  OLD PHC ROAD  414202,414202.0,18.985973,75.135566,7218600820.0,30,Corporate,
340,4,DR HEDGEWAR HOSPITAL,,,19.944847311671925,75.41925964069401,,150,Corporate,
341,31,"DR KANES GAYATRI SUPERSPECILITY HOSPITAL,Pandharpur,Solapur,Pvt","4/5/6/16/17, NEW KARAD NAKA, KARAD ROAD, TAKALI, Pandharpur, Solapur-413304",413304.0,17.794052,75.35725,9422066378.0,100,Corporate,
342,25,"DR KARDILE ACCIDENT HOSPITAL, INDAPUR","PANDHARA, OLD KACHERI ROAD, BEHIND NEW POST OFFICE, Indapur, Pune- 413106",413106.0,18.102174,75.095159,9730480808.0,10,Corporate,
343,31,DR KASLIWAL MEDICAL CARE AND RESEARCH FOUNDATION KASLIWAL HOSPITAL,"196,BUDHWAR PETH NEAR KASTURBA MARKET",413002.0,17.68315,75.895,8149515655.0,60,Corporate,
344,17,DR L H HIRANANDANI HOSPITAL,,,19.446040649122807,72.36373664912281,,246,Corporate,
345,1,DR MAID MULTISPECIALITY HOSPITAL,"326/50,51,56,57,RAHATA,NAGAR MANMAD ROAD,OPP.STATE BANK OF INDIA",423107.0,19.724635,74.421785,7559243114.0,35,Corporate,
346,28,DR MUNIR TAMBOLI MEMORIAL WELLNESS MULTISPECIALITY HOSPITAL,386 386A VIJAYPUR ROAD JATH SANGLI 416404,416404.0,17.13,75.22,8800930385.0,35,Corporate,
347,22,DR PATHAK HOSPITAL,"TRIMBAK COMPLEX, OPPOSITE BYTCO HOSPITAL, SHAHUPATH, NASHIK ROAD %E2%80%93 TRIMBAK COMPLEX, OPPOSITE BYTCO HOSPITAL, SHAHUPATH, NASHIK ROAD %E2%80%93 422101",422101.0,19.968664,73.831608,9823155685.0,20,Corporate,
348,26,DR PATIL HOSPITAL,BESIDE RASAYANI POLICE STATION NEAR HP PETROL PUMP 410207,410207.0,18.99,73.11,9404562624.0,30,Corporate,
349,31,DR PATIL HOSPITAL MADHA,"Main Road, Madha, Solapur-413209",413209.0,18.25467,75.737876,9423333184.0,30,Corporate,
350,4,DR RUNWALS HRIDAYAM HEART CARE CENTRE PRIVATE LIMITED,,,19.944847311671925,75.41925964069401,,48,Corporate,
351,1,DR SHELKE HOSPITAL,"INDIRA NAGAR , SANGAMNER - 422605",422605.0,19.612829,74.101239,9822071948.0,45,Corporate,
352,4,DR SONAR CHILDREN HOSPITAL,,,19.944847311671925,75.41925964069401,,15,Corporate,
353,22,DR TILE HOSPITAL MATERNITY AND NURSING HOME,"102, HARI NAMAN COMPLEX, NEAR BYTCO HOSPITAL , NASHIIK ROAD , NASHIK %E2%80%93 422101",422101.0,19.968664,73.831608,7058410431.0,15,Corporate,
354,33,DR VORA HOSPITAL,"AKOLA NAKA,NEAR OLD ZP,",444505.0,20.17,77.17,9422861342.0,20,Corporate,
355,8,DR. GULWADE HOSPITAL,CHANDRAPUR RAMALA TALAO ROAD JATPURA GATE 442401,442401.0,19.9465278,79.2985556,9822565130.0,30,Corporate,
356,2,"DR. HEDGEWAR HOSPITAL AND RESEARCH CENTRE, AKOLA","Plot No. 01, MUKHARJI BUNGALOW RAUTWADI %E2%80%93 444005",444005.0,20.73,77.08,7559369340.0,15,Corporate,
357,35,DR. R. N. PATILS SURAJ HOSPITAL,"Sun Palm View Bldg, Opp. Palm Beach Marg Plot No, 1&1A, near Sadhu Vaswani International School, Sector 15, Sanpada, Navi Mumbai, Maharashtra",400705.0,19.0718611,73.0074444,9930001638.0,50,Corporate,
358,31,DR. RAGHOJI KIDNEY HOSPITAL AND RESEARCH CENTRE PVT.LTD,"Dr.Raghoji Kidney & Multispecialiy Hospital, Plot No.34,35,36 Mohite Nagar ,Opp.Vruttvedh Press,Hotagi Road Solapur.",413003.0,17.6659167,75.8943333,9822072141.0,100,Corporate,
359,25,DR.BHAGAT BALRUGNALAYA AND DIAGNOSTIC CENTER,"16/1/PLOT NO.3, NEAR MARKET YARD, BARAMATI -INDAPUR ROAD, PUNE- 413102",413102.0,18.150009,74.583291,8380955595.0,25,Corporate,
360,25,"DR.D.Y.PATIL COLLAGE OF AYURVED AND RESEARCH CENTRE,PUNE, CITY,PVT.","Sant Tukaram Nagar, Pimpari, Pune- 411018",411018.0,18.6325,73.82083333,8329152398.0,100,Corporate,
361,30,DR.GADRE EYE CARE CENTER,"PATIL CHAMBER, DABHOLI NAKA , VENGURLA - 416516",416516.0,15.9098098,73.6525001,9822467144.0,20,Corporate,
362,4,DR.GALANDES NAVANKUR MULTISPECIALITY HOSPITAL,,,19.944847311671925,75.41925964069401,,20,Corporate,
363,28,DR.Ghatage Multispeciality Hospital And P.G Institute Resarch Centre,MADHAVNAGAR ROAD BY PASS HIGHWAY SANGLI  416416,416416.0,17.0348056,74.6018333,8989838080.0,100,Corporate,
364,25,DR.KHADE SUPERSPECIALITY HOSPITAL CHAKAN,"BIJA COMPLEX 1ST FLOOR ,OLD PUNE NASIK HIGHWAY,MANIK CHOWK, NEAR ST STAND CHAKAN, PUNE-410501",410501.0,18.707487,73.977126,9850420210.0,50,Corporate,
365,27,"DRPNN Institute of Ophthalmic Sciences LLP, Nandadeep Eye Hospital","Plot 268, 1st Floor, URL Square Building, Above ICICI Bank, Ratnagiri %E2%80%93 415612",415612.0,17.01779,73.27482,9175100623.0,10,Corporate,
366,4,DRUSHTI EYE INSTITUTE PVT. LTD,,,19.944847311671925,75.41925964069401,,10,Corporate,
367,28,DRUSHTI HOSPITAL,"85, buissness complex, peth road, opp hotel rajdhani, Sangli-415409",415409.0,17.02,74.28,9850637728.0,10,Corporate,
368,6,DWARKANAND MULTISPECIALITY HOSPITAL BEED,"SAVTA MALI CHOWK, SATWAI MAIDAN, OPP. DATTA MANDIR %E2%80%93 431122",431122.0,19.839128,75.890447,8275390007.0,30,Corporate,
369,19,Daga memorial govt. hospital,Agrasen chowk,440002.0,21.58719444,79.10186111,9146027120.0,335,Government,DHS
370,33,Dal Hospital,"Gulati Layout , Near Pusad Naka , Pusad Naka, 444505",444505.0,20.17,77.17,9545011612.0,30,Corporate,
371,25,Dalvi Hospital,"Babulal Sheikh Path, Narveer Tanaji Wadi, Shivajinagar, Pune-411005",411005.0,18.5275278,73.8505,7977607423.0,30,Government,
372,31,Damaji Multispecialty Hospital,Damaji Nagar Mangalwedha Solapur 413305,413305.0,17.4662,75.344862,9403507167.0,50,Corporate,
373,36,Dayanand Hospital,"Dayanand Hospital, Vakoli, Talasari, Dist-Palghar",401606.0,20.1164659,72.9194798,7798165511.0,100,Corporate,
374,25,"Delight Hospital,ShirurPune,Pvt","GAT NO:-1597/4,PLOT 27&28, SHIKRAPUR CHAKAN ROAD, PUNE-412208",412208.0,18.65725,74.13765,7774074442.0,45,Corporate,
375,17,Deonar Maternity Home,,,19.446040649122807,72.36373664912281,,30,Government,
376,15,Desai Hospital,"52-A,DOCTORS COLONY GADHINGLAJ,BEHIND BUS STAND,KOLHAPUR",416502.0,16.60630039894737,74.30376235873685,9890684885.0,50,Corporate,
377,9,Desale hospital Sakri Dhule,"In front of petrol pump,Dhule Road,Sakri,DHULE",424304.0,21.08715,74.3601,7666556070.0,30,Corporate,
378,28,Deshmukh (Satre) Charitable Medical Research centre trust,"80-13 A & B,Islampur,Peth-Sangli Road,Near ST Stand, Islampur",415409.0,17.02,74.28,9822295261.0,100,Corporate,
379,33,Deshmukh Bal Rugnlaya,"Plot no.- 01 , pusad naka , Hingoli Road - 444505",444505.0,20.17,77.17,9881265696.0,20,Corporate,
380,3,Deshmukh Eye Hospital,"Deshmukh Eye Hospital,Khaperde Gardens, Netradan Marg, amravati",444602.0,20.907,77.6026,9823165687.0,15,Corporate,
381,6,Deshmukh Hospital,"Masrat Nagar, Jalna Road,Back To SBI Bank 431122",431122.0,19.839128,75.890447,9028822888.0,31,Corporate,
382,16,Deshpande Hospital,"DESHPANDE HOSPITAL,TILAK NAGAR,MAIN ROAD,LATUR",413512.0,19.968664,73.831608,9422071161.0,30,Corporate,
383,31,Devdikar Medical Centre,"Near New ST Stand, Akluj",413101.0,17.477512,75.298578,9168492229.0,30,Corporate,
384,9,"Dewang Balrugnalay, Sakri","Ashapuri complex, Gitai Nagar  Sakri Dhule road Near Desale Hospital 424304",424304.0,21.08715,74.3601,9665964381.0,15,Corporate,
385,25,"Dhakne Hospital,Pune","SHANTAI CITY CENTRE,SHANTAI CITY CENTRE,NEAR BANK OF INDIA,PUNE",410507.0,18.7470593,73.6863569,9822373869.0,30,Corporate,
386,15,Dhanawantri Hospital Ayurvedic Medical College,"203/1,2,3 & 205/1, Raut Colony, Peth Vadgaon, Hatkanangale, Kolhapur-416412",416412.0,17.06,75.52,9404420609.0,60,Corporate,
387,29,"Dhanewantri Multispeciality Hospital, Mhsawad",Mhaswad,415509.0,17.7076819,74.5439,9011833494.0,35,Corporate,
388,7,Dhanwantari Hospital,"Pratap Nager, Khamgaon,Pratap Nager,  Dal Fail 444303",444303.0,20.348496,76.113151,9767406927.0,30,Corporate,
389,13,Dhanwantari Hospital,"5246,Varangaon,Station Road,Near Bus Stand,JALGAON",425305.0,20.76134140182927,74.84583924085365,7741819974.0,30,Corporate,
390,10,Dhanwantari hospital & multiplicity center,"CHAMORSHI ROAD,NEAR Z.P. HIGHSCHOOL GADCHIROLI",442605.0,20.057671,80.181995,9372425497.0,35,Corporate,
391,22,Dhanwantari multispecality hospital,"serve no.548,Pimpalgaon Baswant,chinchchkhed road,NASHIK",422209.0,20.37015,73.7694,9850043697.0,50,Corporate,
392,7,Dhanwe Hospital,"Behind Bus Stand,Chikhali,BULDHANA",443201.0,20.229725,76.239946,9822690425.0,20,Corporate,
393,19,Dharaskar Children Hospital And Neonatal Intensive Care Unit,"Mahal, Hindu Mulinchi Shala, Gandhi Gate %E2%80%93 440032",440032.0,21.1521944,79.0691667,7122721220.0,15,Corporate,
394,9,Dhule Charitable Societys Swa. Sai. Kai. Dadasaheb C.R. Ajmera Ayurved Hospital Dhule,"C S No 4259 Dayasagar Educational Campus, Nehru Chowk Deopur, Agra Road, Near Ekvira Temple %E2%80%93 424002",424002.0,20.9042271,74.7748909,9503211682.0,100,Corporate,
395,15,Diamond superspecialty hospital,"Diamond Superspecialtiy Hospital,184/A,Nagala Park,Bhausingji Road,Behind mahaveer Park,KOLHAPUR",416003.0,16.43108333,74.14144444,9422045330.0,110,Corporate,
396,10,"Disctrict Hospital, Gadchiroli","Armori - Gadchiroli - Chandrapur Rd, General Hospital Compound, Gadchiroli, Maharashtra",442605.0,20.057671,80.181995,7972192253.0,216,Government,DHS
397,31,Disha Hospital Sangola,"KADLAS NAKA, SANGOLA, Solapur-413307",413307.0,17.405468,75.136661,9881293295.0,30,Corporate,
398,6,Disrict Hospital Beed,"Barshi road,Beed N.H.211 Near S.P. office,Beed",431122.0,19.839128,75.890447,9130268027.0,310,Government,DHS
399,22,District Civil Hospital,"Trambakeshwar Rd, Police Staff Colony, Nashik, Maharashtra?%27,%27HSI3115%27)",422002.0,20.00505,73.83675,8484830807.0,541,Government,DHS
400,7,District General Hospital Buldana,"Milind Nagar, Buldana, Maharashtra",443001.0,20.5336389,76.1794722,7972037256.0,320,Government,DHS
401,8,District General Hospital Chandrapur,Main Road chotta Bazar Chandrapur,442402.0,19.95,79.3,7020113347.0,300,Government,DMER
402,4,District Hospital Aurangabad,,,19.944847311671925,75.41925964069401,,200,Government,
403,5,District Hospital Bhandara,"Santaji Nagar, Bhandara, Maharashtra",441904.0,21.1630556,79.6558056,9975454267.0,400,Government,DHS
404,14,District Hospital Jalna,"488,AMBAD ROAD, MEDICAL CAMPUS,AMBAD ROAD,JALNA",431203.0,19.84,75.89,9404420028.0,200,Government,DHS
405,25,District Hospital Pune,"Defence Area, Pimple Gurav, Pimpri-Chinchwad, Maharashtra?%27,%27HSI4859%27)",411027.0,18.57805556,73.80233333,9422244232.0,300,Government,DHS
406,31,District Hospital Solapur,"Gurunanak Chowk, Solapur-413003",413003.0,17.6659167,75.8943333,9404009000.0,100,Government,
407,33,"District Hospital, Washim","Near Akola Naka,Washim",444505.0,20.17,77.17,7972234309.0,200,Government,DHS
408,9,"District Hospital,Dhule",Dhule %E2%80%93 424001,424001.0,20.9254213,74.7395367,9850523522.0,100,Government,
409,7,District Womens Hospital,"VISHNUWADI, Buldhana, 43001",443001.0,20.5336389,76.1794722,8805556655.0,100,Government,
410,3,Distt Hospital for Women Amravati,"Morshi Road,Dafrin Hospital",444603.0,20.9298611,77.7523056,8275283767.0,200,Government,DHS
411,35,Divine Multispeciality Hospital and Research Centre,"Plot No 21 ,Sector 6  Near Ekta Society Ghansoli Thane 400701",400701.0,19.1243889,72.9976111,9820795366.0,32,Corporate,
412,15,Diyaa Hospital,TMC no 6838 1 P22 Near Hotel Nisarga chikodi 591201,591201.0,16.4247347,74.582945,9844506999.0,50,Corporate,
413,35,Doddu Sheena Shetty Memorial Central Hospital,"Poddar Samruddhi Evergreen, Kalyan Karjat Road, Sape Village, Badlapur East, Thane- , Maharashtra",421503.0,19.150013,73.266654,9769702098.0,60,Corporate,
414,29,"Doltade Hospital, Mhaswad",Doltade hospital1158 7A/8A Mhaswad shingnapur road,415509.0,17.7076819,74.5439,9673378100.0,50,Corporate,
415,1,Dr Mane Hospital,"39,Biroba nagar,Ahmednagar Manmad highway,yewle?%20estate,Rahuri,AHMADNAGAR%27,%27HSI8218%27)",413705.0,19.4091096,74.6970749,7498136701.0,50,Corporate,
416,17,"Dr Anandibai joshi maternity home,Saki Naka,Kurla",,,19.446040649122807,72.36373664912281,,30,Government,
417,15,"Dr Bafnas Star Superspeciality Clinic And Hospirtal,Karvir,Kolhapur,Pvt","18, Rukmani Nagar, 2103/13 E Ward, Near LIC Ground, Karvir, Kolhapur-416005",416005.0,16.60630039894737,74.30376235873685,7020918166.0,25,Corporate,
418,26,Dr Bhat Nursing Home,"Plot no 5 , Opp to Panchayat Samiti Roha , Roha Nivi Road - 402109",402109.0,18.47456,73.1318753,9665772858.0,30,Corporate,
419,18,Dr Bhatias Hospital,,,19.11878330833333,72.87393688666666,,50,Corporate,
420,25,Dr Bhausaheb Sardesai Talegaon Rural Hospital,"Dr Bhausaheb Sardesai Talegaon Rural Hospital, Talegaon- chakan road, near Post Office",410507.0,18.7470593,73.6863569,9762157324.0,570,Corporate,
421,32,Dr Ghagre Hospital,"plot no 16, NEAR NH 53 DHANDE COMPLEX, 442203",442203.0,21.1637519,78.410162,9689997935.0,10,Corporate,
422,15,"Dr J J Magdum Trust Dr J J Magdum Charitable Hospital,Kolhapur,PVT","295, SHIROL WADI ROAD, MOUJE AGAR BHAG JAYSINGPUR, Shirol, Kolhapur-416101",416101.0,16.60630039894737,74.30376235873685,9423284876.0,148,Corporate,
423,15,"Dr J J Magdum Trusts Dr J J Magdum Homoeopathic Medical College Hospital Jaysingpur,Pvt,Kolhapur","C.S.No 2357/A/A1, Kolhapur Sangli Road, Jaysingpur 416101",416101.0,16.60630039894737,74.30376235873685,9850897898.0,45,Corporate,
424,31,"Dr Lawate Orhopedic Hospital,Mohol,Solapur,Pvt","PANDHARPUR ROAD, MOHOL, Solapur-413213",413213.0,17.8217,75.65265,9404711047.0,30,Corporate,
425,35,Dr Mahajan Hospital and ITC,R-831 Rabale Thane Belapur Road Shell Petrol Pump 400708,400708.0,19.15,72.99,9820199415.0,50,Corporate,
426,25,Dr Manohar Dole Medical Foundations Galaxy Eye Hospital,"Narayangaon, Near BSNL office, Junnar Road, Pune, Maharashtra 410504",410504.0,19.202221,73.970175,9860226058.0,25,Corporate,
427,28,Dr Margale Multispeciality Hospital Atpadi,"Gat No 3746, Aba nagar chowk, Bypass Road, Atpadi, Sangli-415301",415301.0,17.42,74.94,9404419910.0,15,Corporate,
428,30,Dr Nagvekar Hospital & Nursing Home,"224,KANKAVLI,VIDYA NAGAR,Opp vidyamandir school,SINDHUDURG",416602.0,16.3153191,73.6200283,9422434505.0,50,Corporate,
429,8,Dr REGUNDWAR NURSING HOME,"Vivek Nagar, Chandrapur, Maharashtra 442401",442401.0,19.9465278,79.2985556,,10,Corporate,
430,3,Dr Rajendra Gode Medical College and Hospital,"University- Mardi Road, Ghatkheda Amravati, - 444602",444602.0,20.907,77.6026,9850351510.0,470,Corporate,
431,32,Dr Rane Multispeciality Hospital,"Near Bus Stand Arvi, Wardha -?%27,%27HSI1658%27)",442201.0,20.9487,78.21726,9422144936.0,12,Corporate,
432,9,Dr Ratansing Munot Ahinsa Hospital,"190/1A/2?%20Dhule%20Road%20Dondaicha,Dondaicha,%20Dhule%20Road?%27,%27HSI95135%27)",425408.0,21.3474224,74.6261286,9422788092.0,100,Corporate,
433,25,"Dr Todkar Hospital,Pune,Pvt","08/01, Mangalwar Peth, Thakare Chowk, Pune City, Pune-411011",411011.0,18.52025,73.8599167,9823390505.0,34,Corporate,
434,28,Dr. Anil Kulkarni Eye Hospital,"2/21, Near Vantamure Corner, Hiremath Plots ,Near Vantamure Corner Sangli Road Miraj, Sangli-416410",416410.0,17.0348056,74.6018333,9822058204.0,10,Corporate,
435,13,Dr. Bhangale Surgical and Nursing Home,"341,Onkar Nagar,Nr. Parikh Park,Behind New Bus Stand,JALGAON",425001.0,20.46428,75.004181,9960606180.0,60,Corporate,
436,3,Dr. Choudhary Stree Rugnalay And Vaishnavi Baal Rugnalay,"Plot No. 1, warud, Pandhurna Chowk, Pandurna Chow- 444906",444906.0,21.38,78.26,9881392704.0,20,Corporate,
437,35,Dr. D. Y. Patil Hospital & Research Centre,"Sector -5, Nerul, Navi Mumbai Nerul",400706.0,19.035,73.022,9766872908.0,0,Corporate,
438,15,"Dr. D. Y. Patil Medical College, Hospital & Research Institute","507,E Ward, Kadamwadi, Kolhapur,Near Bharati Vidyapeeth College of Management Kadamwadi Kolhapur",416003.0,16.43108333,74.14144444,9923384992.0,750,Corporate,
439,4,"Dr. Dahiphale Medical Foundation Trust, Dr. Dahiphale Multispeciality Hospital, Aurangabad",,,19.944847311671925,75.41925964069401,,50,Corporate,
440,26,"Dr. G.D. Pol Foundation, YMT General Hospital",Kharghar,410210.0,19.0135,73.1710556,9975164495.0,102,Corporate,
441,36,Dr. M L Dhawale Hospital,"OPPOSITE S.T.WORKSHOP,PALGHAR BOISAR ROAD,PALGHAR",401401.0,19.6247486,72.791038,7720016374.0,50,Corporate,
442,13,Dr. P. M. Mahajan Memorial Hospital,"Besides Bhirud Hospital,Jamner Rd,near maharana pratap high school,Jalgaon 425201",425201.0,20.76134140182927,74.84583924085365,9359936113.0,35,Corporate,
443,29,"Dr. Patil hospital, Dahiwadi",Dahiwadi phaltan road 415508,415508.0,17.824379,74.547139,9422405060.0,51,Corporate,
444,28,Dr. Pawar Hospital,"GAT NO 7, 2014/2, KARAD-PALUS ROAD, Palus",416310.0,17.13,74.48,9860111046.0,50,Corporate,
445,24,Dr. Prafulla Patil Multispecility Hospital Pvt ltd,"GUT NO.40 AT KAUDGAON,NH-61 PATHRI ROAD PARBHANI,",431401.0,19.269567,76.774114,8888827554.0,100,Corporate,
446,18,"Dr. R. N. Cooper Hospital , Juhu",,,19.11878330833333,72.87393688666666,,520,Government,MCGM
447,20,Dr. Shankarrao Chavan Government Medical College and Hospital,Vishnupuri Nanded,431606.0,19.2,77.4,9421069153.0,510,Government,DMER
448,16,Dr. Vinayakrao Patil Multispeciality Hospital,"2744/2442, Deoni, Udgir - Nilanga Road, Udgir - Nilanga Road -413519",413519.0,18.2621073,77.0823432,9833290139.0,150,Corporate,
449,22,"Dr. Zakir Husen Rugnalay, Kathada, Nashik","Dwarka,Nashik - 422011",422011.0,19.988439,73.720725,9822753003.0,100,Government,
450,9,"Dr.B.D.Ahirrao Memorial Hospital,Sakri,Dhule,Pvt","DHULE ROAD,SAKRI,Dhule-424304",424304.0,21.08715,74.3601,8788568182.0,30,Corporate,
451,15,Dr.Dwarkadas Kotnis Isolation Hospital,701 B Near Hokey Stadium Shambhaji Nagar Ring road Near Datta Mandir 416008,416008.0,16.68958333,74.24847222,9421111544.0,32,Government,
452,2,Dr.K S Patil hospital and polyclinic akola,"6,shrawgi plots akola,behind LIC office akola,near khandelwal towers,AKOLA",444001.0,20.71,77.0,8888005588.0,30,Corporate,
453,23,Dr.K.D.Shendage Hospital,"MAIN ROAD OMERGA,MAIN ROAD OMERGA,MAIN ROAD OMERGA",413606.0,17.8319935,76.6252018,9422464584.0,49,Corporate,
454,22,Dr.Karad Hospital,First Floor Ghatol Galli Satpur Trambak Road 422001,422001.0,20.0082,73.80645,9822548808.0,15,Corporate,
455,14,Dr.Karwa Hospital,"DR KARWA HOSPITAL,4118/99,NEAR SHIVAJI STATUE,POST OFFICE ROAD,OPPOSITE TELEPHONE EXCHANGE,JALNA",431203.0,19.84,75.89,9822412444.0,30,Corporate,
456,31,"Dr.Lawate ortho hospital & trauma centre unit,solapur","667/1B/1/3/A,4180,YASHNAGAR ,PANDHARPUR ROAD,NEAR POLICE COLONY,SOLAPUR",413307.0,17.405468,75.136661,9404711047.0,30,Corporate,
457,25,Dr.Mate Hospital,"Behind Hotel Tukson, Opposite ST Stand Narayangaon, Taluka-Junnar, District -Pune, Maharashtra",410504.0,19.202221,73.970175,9029438939.0,30,Corporate,
458,17,"Dr.Meenas Multispeciality Hospital , Bhandup",,,19.446040649122807,72.36373664912281,,30,Corporate,
459,31,"Dr.NikamsTulip SuperSpecility Hospital,Pandharpur,Solapur,Pvt","104/2/1,104/2/2/1, D MART ROAD, K.B.P. College chowk, Pandharpur Pune Road, Solapur-413304",413304.0,17.794052,75.35725,9822302036.0,50,Corporate,
460,3,"Dr.Panjabrao Deshmukh Hospital, Amravati","Shivaji Nager, Morshi Road Morshi Road amrvarti",444601.0,20.9298611,77.7523056,9834117162.0,570,Corporate,
461,31,"Dr.Rizwans Apex Superspeciality Hospital and Research Center,Solapur South,Pvt","1 & 6, CS 5/4 Yamini Nagar Vijaypura Road 413004",413004.0,17.6314722,75.9046944,8805975345.0,103,Corporate,
462,3,Dr.Shrirao Multispelity Hospital,"Plot n0. 2 , MORSHI, BUS STAND ROAD , PRASHANT COLONY, 444905",444905.0,21.33,77.91,9404076861.0,30,Corporate,
463,3,"Dr.Sushila Nayar Hospital,Utawali","MH MSH 6,Uttawali, Dharni?%27,%27HSI43006%27)",444702.0,21.58,76.81,9422141696.0,50,Corporate,
464,22,"Dr.Vasantrao Pawar Medical College Hospital & Research Center, Adgaon,Nashik","SR No 1074/2,Adgaon, Vasantdada Nagar, Adgaon,Nashik,",422003.0,20.080116,74.109816,9420475464.0,1000,Corporate,
465,35,"Drona Foundation Sanchalit Rajmata Jijau Rugnalay, Ambadi","Ambadi, Bhiwandi, Bhiwandi-Wada Road,?%27,%27HSI55274%27)",421302.0,19.2103751,73.0464259,7038920888.0,30,Corporate,
466,14,Drushti Lions Netralay And Lions Dailysis Center partur,plot no 5904 Om sai park Jalna Raod Watur Road 431504,431504.0,75.887177,19.838949,9923150267.0,22,Corporate,
467,11,Dwarka Multispeciality hospital & Trauma Centre,"Laxmi Nagar Road, Gondia, Laxmi Nagar Road %E2%80%93 441614",441614.0,21.555989,80.156813,9423177984.0,50,Corporate,
468,3,EKTA Hospital,"Daryapur,Akot Road,",444803.0,21.04,77.46,9850346161.0,30,Corporate,
469,4,EKVEERA HOSPITAL,,,19.944847311671925,75.41925964069401,,30,Corporate,
470,15,ELITE MULTISPECIALITY HOSPITAL,"near by True Value Showroom, Shiroli, Hatkanangale, Kolhapur- 416122",416122.0,16.60630039894737,74.30376235873685,8668422305.0,30,Corporate,
471,19,ELIXIR METRO CITY HOSPITAL & CRITICAL CARE CARE CENTRE,"832 RESHIMBAG UMRED ROAD SAKKARDARA CHOWK NAGPUR  , 440024",440024.0,21.11416667,79.10416667,9969541018.0,30,Corporate,
472,17,ESIS HOSPITAL,,,19.446040649122807,72.36373664912281,,300,Government,
473,4,ESIS HOSPITAL,,,19.944847311671925,75.41925964069401,,100,Government,
474,35,ESIS HOSPITAL THANE,"WAGLE ESTATE,THANE, ROAD NO 33 %E2%80%93 400606",400606.0,19.2060278,72.9669444,8108905000.0,100,Government,
475,35,ESIS HOSPITAL VASHI,"SEC 5, VASHI, NAVI MUMBAI, SAGAR VIHAR ROAD, NEAR RAMDEV HOTEL %E2%80%93 400703",400703.0,19.0759167,73.0068056,9892033437.0,50,Government,
476,22,ESIS Hospital Satpur Nashik,"plot no %E2%80%93 51, Satpur Bus stand, Trimbakeshwar Road Satpur %E2%80%93 422007",422007.0,20.2041737,73.8271949,9822725680.0,100,Government,
477,31,ESIS Hospital Solapur,"Hotagi road, Solapur, 413003",413003.0,17.6659167,75.8943333,9096512017.0,100,Government,
478,19,"ESIS hospital, Nagpur","Somvari Peth, Manewada Road 440024",440024.0,21.11416667,79.10416667,9423601793.0,100,Government,
479,23,FADTALE HOSPITAL,"UMARGA, AROGYA NAGAR, - 413606",413606.0,17.8319935,76.6252018,9284935197.0,25,Corporate,
480,2,FATEMA NURSSING HOME & HUSAINI MULTISPECIALITY HOSPITAL,"67 AURANZEB COLONY MAUJE NAIGAON SR. NO 15,AURANGZEB COLONY AKOT FILE AKOLA",444003.0,20.81,77.11,7875836830.0,30,Corporate,
481,35,Freedam Fighter Hakim Ajmal Khan Hospital,"Tmc Hospital Kausa, Mumbra, Thane, Maharashtra",400612.0,19.1194423,73.0582298,7021147744.0,100,Government,
482,9,G N MARATHE FOUNDATION SHINDE HOSPITAL SAKRI,"5- DHULE ROAD SAKRI , DHULE ROAD ,NEAR AHIRRAO HOSPITAL - 424304",424304.0,21.08715,74.3601,8888312891.0,30,Corporate,
483,16,"GADADE HOSPITAL , LATUR","R-8/1334/1, AUSA ROAD LATUR, RAJIV GANDHI CHOWK LATUR , - 413512",413512.0,19.968664,73.831608,9422532690.0,30,Corporate,
484,20,GADEWAR ACCIDENT AND MATERNITY HOSPITAL,"WADIYA FACTORY AREA, SHIVAJI NAGAR NANDED 431602",431602.0,19.2,77.4,9850411231.0,13,Corporate,
485,14,GADIA HOSPITAL,"Plot No. 2425, Bhokardan Naka, Priydarshani Colony, Jalna %E2%80%93 431203",431203.0,19.84,75.89,8149940280.0,15,Corporate,
486,33,GAJANAN CHILDRENS HOSPITAL AND DIAGNOSTIC CENTRE,"PLOT NO 1,OLD NAGAR PARISHAD ROAD,NEAR VITTHALWADI WASHIM",444505.0,20.17,77.17,9822951902.0,40,Corporate,
487,33,GAJANAN HOSPITAL,"1,near doordarshan kendra,LONI ROAD,opposite petrol pump- 444506",444506.0,20.04,76.69,9850082503.0,15,Corporate,
488,4,GAJANAN HOSPITAL&CRITICAL CARE CENTRE,,,19.944847311671925,75.41925964069401,,35,Corporate,
489,31,"GAJANAN LOKSEVA HOSPITAL,SOLAPUR,PVT.","Chokhamela Chowk, Bajarpeth, Mangalvedha Dist Solapur-413305",413305.0,17.4662,75.344862,9552792495.0,30,Corporate,
490,4,GAJANAN MULTISPECIALITY HOSPITAL AND ICU,,,19.944847311671925,75.41925964069401,,30,Corporate,
491,28,GAJNARAYAN DDORKAR MULTISPECIALITY HOSPITAL,"HIREMAT PLOT, VANTMURE CORNER, NEAR KULKARNI EYE HOSPITAL, MIRAJ-416410",416410.0,17.0348056,74.6018333,9975640098.0,50,Corporate,
492,35,GALAXY HOSPITAL,VASUDAV ARCADE AHEAD OF CINEMAX  MIRA ROAD EAST 401107,401107.0,19.1922325,73.0637706,9136165109.0,50,Corporate,
493,26,GALAXY MULTYSPECIALITY HOSPITAL PEN,"NEAR BY OLLD PETROL PUMP PEN , ALIBAG DHARMATAR ROAD , 402107",402107.0,18.7400098,73.1117003,9763867481.0,35,Corporate,
494,17,GALAXY SUPER SPECIALITY HOSPITAL,,,19.446040649122807,72.36373664912281,,35,Corporate,
495,2,GANADHISHAYA HOSPITAL,"BESIDES MT. CARMEL HIGH SCHOOL, LADY HARDING ROAD, AKOLA - 444001",444001.0,20.71,77.0,9730106780.0,20,Corporate,
496,22,GANAPATI HOSPITAL,"STATION ROAD , Ghoti %E2%80%93 422402",422402.0,19.6973226,73.5609291,8007857872.0,40,Corporate,
497,4,GANPATI SUPERSPECIALTY HOSPITAL,,,19.944847311671925,75.41925964069401,,30,Corporate,
498,1,GARUD HOSPITAL AND CANCER CENTRE,"NAGAR_MANMAD Highway,SAVADI?%20ROAD,Ahmadnagar%27,%27HSI895%27)",414003.0,19.1162222,74.7353611,9822040375.0,27,Corporate,
499,11,GAYATRI HOSPITAL,"SUBODH CHOWK, GANESH NAGAR %E2%80%93 Gondiya %E2%80%93 441601",441601.0,21.484894,80.251647,9371330003.0,30,Corporate,
500,13,GAYATRI HOSPITAL,"51A, Plot No 6,Radhakrishna Colony,National Highway No 6, Next To Iti., Jalgaon, Maharashtra -?%27,%27HSI99993%27)",425001.0,20.46428,75.004181,123.0,30,Corporate,
501,22,GENERAL HOSPITAL MALEGAON,"Dnyane, Malegaon, Maharashtra?%27,%27HSI4549%27)",423203.0,20.5533619,74.5080312,8805091218.0,200,Government,DHS
502,6,"GERIATRIC HEALTH & MENTAL ILLNESS CENTRE, AMBAJOGAI","Lokhandi Sawargaon,ambajogai, Beed",431517.0,18.728364,76.389798,8668373323.0,400,Government,
503,30,GETWELL FRACTURE & ACCIDENT HOSPITAL,"JALKEWADI , NEAR TALATHI OFFICE , KANKAVLI - 416602",416602.0,16.3153191,73.6200283,9422393139.0,30,Corporate,
504,29,"GHOTAVADEKAR HOSPITAL,SANCHIT ICU,NIRAMAY DIALYSIS CENTRE,CARDIWIN CATHLAB","425,NEAR MAHAGANPATI MANDIR,MENAVLI ROAD,WAI,TAL.WAI,SATARA",412803.0,17.879632,74.010916,9822294184.0,50,Corporate,
505,15,GIRIJA HOSPITAL,"GIRIJA HOSPITAL,99/1A,Peth Vadgaon,DR CHOUGULE COMPLEX,opposite s.t.stand,KOLHAPUR",416112.0,16.60630039894737,74.30376235873685,9823284502.0,32,Corporate,
506,29,GIRIJA HOSPITAL MULTISPECIALITY CENTER,"Plot No. 7625, MALHAR PETH, POLICE HQ TO ST STAND ROAD, NEAR POLICE HQ %E2%80%93 415002",415002.0,17.6767,74.00425,9822037390.0,35,Corporate,
507,14,GIRNARE HOSPITAL,"GIRNARE COMPLEX,BHOKARDAN,BHOKARDAN",431114.0,20.254098,75.768988,9420907057.0,30,Corporate,
508,6,GITE ACCIDENT MULTISPECALITYAND TRAUMA CENTER,"DATT NAGAR, NAVAGAN COLLAGE ROAD %E2%80%93 431122",431122.0,19.839128,75.890447,9970026328.0,30,Corporate,
509,17,GLAZY HOSPITAL & NURSING HOME,,,19.446040649122807,72.36373664912281,,49,Corporate,
510,22,GLOBAL NURSING HOME,"1,TRIMUTRI CHOWK,AMBAD LINK ROAD,PADMA HOTEL,",422009.0,19.988439,73.720725,9011060788.0,50,Corporate,
511,15,GLOBAL ORTHOPAEDICS AND ORAL CARE CENTRE,"3, BHUDARGAD COLONY, OPPOSITE BARDESKAR PETROL PUMP, Bhudargad, Kolhapur-416209",416209.0,16.60630039894737,74.30376235873685,7500570025.0,15,Corporate,
512,20,GODAVARI INSTITUTE OF CRITICAL CARE MEDICINE (GICCM) HOSPITAL,"NEAR HINGOLI GATE,NEAR HINGOLI GATE,town market society,NANDED?%27,%27HSI67212%27)",431602.0,19.2,77.4,7499727676.0,30,Corporate,
513,16,GODAWARI MULTISPECIALITY AND CRITICAL CARE CENNTER,"KHARDEKAR STOP, AUSA ROAD, LATUR",413531.0,18.37795,76.50265,9689520990.0,30,Corporate,
514,13,GOLDCITY HOSPITAL - UNIT OF NETRAM EYE CARE HOSPITAL PVT.LTD.,"Yash Plaza,Near Govinda Rickshaw stop Jalgaon",425001.0,20.46428,75.004181,7249673019.0,0,Corporate,
515,13,GOLDEN HOUR HOSPITAL MULTI SUPER SPECIALITY CRITICAL CARE UNIT,"BHUSAWAL DNYANRANJAN TOWER ANAND NAGAR BHUSAWAL, SURANA BUILDING, 425201",425201.0,20.76134140182927,74.84583924085365,7665552388.0,30,Corporate,
516,16,GORE KAN NAK GHASA V DANT HOSPITAL,"MITRA NAGAR , MAIN ROAD , NEAR TAHSIL OFFICE - 413512",413512.0,19.968664,73.831608,9422014580.0,10,Corporate,
517,23,GOVERNMENT MEDICAL COLLEGE,"marwad gali near bhim nagar,osmanabad",413501.0,18.408779,76.559758,9422934323.0,236,Government,DHS
518,11,GOVERNMENT MEDICAL COLLEGE,"Nehru chauwk ,infront of navin prashashkiy imarat",441601.0,21.484894,80.251647,9823169131.0,180,Government,DMER
519,4,GOVERNMENT MEDICAL COLLEGE AND CANCER HOSPITAL,,,19.944847311671925,75.41925964069401,,100,Government,DMER
520,22,GRAAVITY MULTISPECIALITY HOSPITAL PVT LTD,"FOURTH FLOOR, SHRI HAREKRISNA PLAZA, OPPO OLD ADGAON NAKA,KATYA MARUTI CHAUK,PANCHAVTI NASHIK,HIRAWADI ROAD",422003.0,20.080116,74.109816,9975832812.0,44,Corporate,
521,31,"GULVE HOSPITAL,Malshiras,Solapur,Pvt,Solapur","GAT NO 115/1/2,PLOT NO 2A, AKLUJ- MALSHIRAS  ROAD, NAER SAI MANDIR, Akluj, Malshiras, Solapur -413101",413101.0,17.477512,75.298578,9890075709.0,20,Corporate,
522,25,GUNJKAR MULTISPECIALITY,"315 SEC 18 SHIVTEJ NAGAR, SPINE ROAD, OPPOSITE GHARKUL, CHIKHALI, Pune - 411019",411019.0,18.6395,73.79586111,9767092120.0,65,Corporate,
523,7,"GURJAR BALRUGNALAYA,Buldhana",Mutthey Lay Out behind Bus Stand  Buldhana,443001.0,20.5336389,76.1794722,9673839043.0,31,Corporate,
524,30,GURUKRUPA HOSPITAL,"1212,KALMATH ,KANKAVLI,GOSAVIWADI ROAD,NEAR POLICE STATION KANKAVLI,SINDHUDURG",416602.0,16.3153191,73.6200283,9822384884.0,30,Corporate,
525,20,GURUKRUPA SUPER SPECIALITY HOSPITAL,"In front of Bannalikar/Tulsi Hospital, Doctor Lane, ST BUS STAND ROAD, - In front of Bannalikar/Tulsi Hospital, Doctor Lane, ST BUS STAND ROAD, - 431601",431601.0,20.554431,74.512024,9423112433.0,42,Corporate,
526,16,GURUMAULI MULTISPECIALITY HOSPITAL,"B7/701, VASANTRAO NAIK CHOWK PANCHMUKHI HANUMAN MANDIR RING ROAD LATUR, NEAR RAJIV GANDHI CHOWK LATUR %E2%80%93 413512",413512.0,19.968664,73.831608,9766166616.0,35,Corporate,
527,7,Gabhane Hospital,"Dongaon Road Mehkar,Mehkar?%27,%27HSI85363%27)",443301.0,20.13966,76.563,9422926222.0,40,Corporate,
528,33,Gabhane Hospital Washim,"Near Laxury Bus Stand , Washim - 444505",444505.0,20.17,77.17,7875116699.0,30,Corporate,
529,34,Gadda Hospital Digras,"Near Nagoba Mandir,Gandhi Nagar,Digras,YAVATMAL 445203",445203.0,20.1051666,77.7135833,9422167968.0,10,Corporate,
530,8,Gadegone Orthopedics Surgery & Accidental Hospital,"Vivek Nagar,Mul Road,MAchhi nala,CHANDRAPUR",442401.0,19.9465278,79.2985556,9422135904.0,20,Corporate,
531,20,Gaikwad Hospital,At Post Degloor Tq Degloor Dist Nanded,431717.0,19.2,77.4,9423439158.0,40,Corporate,
532,17,Galaxy Multispeciality Hospital,,,19.446040649122807,72.36373664912281,,50,Corporate,
533,4,Galaxy Superspeciality Hospital & Research Institute,,,19.944847311671925,75.41925964069401,,50,Corporate,
534,15,"Ganga Prakash Hospital, Kolhapur","%C2%A0T.P SCHEME NO.2 , Plot No 140 , A ward , Rankalavesh , Dhudhali , Kolhapur , 416012.",416011.0,16.60630039894737,74.30376235873685,9423281787.0,50,Corporate,
535,6,Ganganarayan Superspecility Spine Hospital,"1_7_910 , Vidyanagar (East_, Barsi Road , - 431122",431122.0,19.839128,75.890447,8855883666.0,42,Corporate,
536,9,Ganpati Hospital and ICU,"City survey no 3497/8 - Shirpur,Near bus stand,Main road -425405",425405.0,21.3673,74.83075,7588003617.0,35,Corporate,
537,14,Ganraj Hospital and Orthopedic Center,"Jafrabad Road , Bhokardan - 431213",431213.0,20.3326,75.71382,9403088651.0,10,Corporate,
538,25,"Gawade Multispeciality Hospital,Khed,Pune,PVT","PABAL ROAD, RAJGURU NAGAR, NEAR IDBI BANK, TAL- KHED, PUNE-410505",410505.0,18.988502,73.63596,9890899799.0,44,Corporate,
539,16,Gayatri Superspeciality Hospital &Critical Care Centre Barshi road latur,Barshi Road Latur,413512.0,19.968664,73.831608,9970166595.0,50,Corporate,
540,29,Geetanjali Hospital,"2410/B ,siddhanathwadi near S,T stand wai?%27,%27HSI66955%27)",412803.0,17.879632,74.010916,9850065626.0,35,Corporate,
541,15,"Gem Hospital Care & Cure Center, Kolhapur","923(KH),B.Ward,V.H.L Road ,Azad Chowk,KOLHAPUR",416012.0,16.41294444,74.13072222,7620083799.0,48,Corporate,
542,3,General Hospital - Amravati,"Ervin Chouk,Camp Road Nr. Ambedkar Statue amravati",444601.0,20.9298611,77.7523056,9960616532.0,379,Government,DHS
543,9,General Hospital Dhule,"Chakkarbardi, Malegaon Road, Dhule",424006.0,20.72714,74.7239,9823127141.0,545,Government,DMER
544,17,"General Hospital Malvani, Dist. Mumbai",,,19.446040649122807,72.36373664912281,,60,Government,
545,18,General Hospital Rajawadi,,,19.11878330833333,72.87393688666666,,580,Government,MCGM
546,35,"General Hospital Shashtri Nagar, Dombivli","R-15, Kopar Rd, Lodha Heaven, Shastri Nagar, Dombivli West, Dombivli, Maharashtra 421202",421202.0,19.2215556,73.0830556,9821736446.0,120,Government,
547,16,General Hospital Udgir,"295/1 naded bidar road,near BSNL office, infront of Shivaji college, Udgir",413517.0,18.3710497,77.134958,2385256428.0,100,Government,DMER
548,32,General Hospital Wardha,"Itwari Road, wardha?%27,%27HSI1189%27)",442001.0,20.7531062,78.511073639779,9822857968.0,256,Government,DHS
549,7,"General Hospital,Khamgaon","SH-24, Buldhana Warwand, Shegaon Rd, Khamgaon, Maharashtra",444303.0,20.348496,76.113151,8975301975.0,220,Government,DHS
550,25,Get Well Multispeciality Hospital,"Pune-Nashik Highway,Manchar,PUNE",410503.0,19.034215,74.2211,9970794340.0,60,Corporate,
551,35,Global Care And Welfare Hospital,,,19.295112535714285,73.01962990809524,,30,Corporate,
552,17,Gokuldas tejpal hospital,,,19.446040649122807,72.36373664912281,,521,Government,DMER
553,17,Goregaon (Topiwala) Municipal Maternity Home,,,19.446040649122807,72.36373664912281,,30,Government,
554,2,Goverment Medical College and Hospital Akola,"347,near ashok vatika,collector office road,Near District Jail,AKOLA?%27,%27HSI5249%27)",444001.0,20.71,77.0,8087446659.0,500,Government,DMER
555,13,"Government Medical College & Hospital , Jalgaon","District Hospital, JalgaonOld B J Market, Jaikisan Wadi, Jalgaon, Maharashtra",425001.0,20.46428,75.004181,8788304962.0,350,Government,DHS
556,28,Government Medical College & Hospital Miraj,"Miraj Pandharpur Road, Miraj",416410.0,17.0348056,74.6018333,9921411355.0,500,Government,DMER
557,30,Government Medical College Bambolim Goa,"Bambolim,SINDHUDURG",403202.0,15.4643056,73.8580278,9823574626.0,1200,Government,
558,21,Government Medical College Nadurbar,"NH753B, Dudhale Shivar, Nandurbar, Maharashtra?%27,%27HSI7106%27)",425412.0,21.3122,74.21885,9011804961.0,200,Government,DHS
559,30,Government Medical College SINDHUDURG,"Near District Police Headquarters Lake, Post, Barrister Nath Pai Rd, Police Line, Oros, Maharashtra?%27,%27HSI2373%27)",416812.0,16.1117593,73.6886442,9422416949.0,200,Government,DHS
560,12,"Government Medical College and HospitaL, Hingoli.","Milind Colony, Shree Nagar, Hingoli, Maharashtra?%27,%27HSI6751%27)",431513.0,77.1476,19.79908,9765138433.0,200,Government,DHS
561,25,"Government Medical College and Hospital ,Baramati ,Pune, Govt","107, MIDC Area, Opposite Mahila Hospital, Baramati, Pune-413133",413133.0,18.10683,75.77747,8208950879.0,536,Government,
562,36,Govt Hospital Kasa,"Patil Pada, Kasa, Maharashtra?%27,%27HSI69717%27)",401607.0,19.9128824,73.0464309,9158453909.0,50,Government,
563,19,Govt Medical College and Super Specility Hospital Nagpur,Near Tukadoji Squre,440003.0,21.12283333,79.08502778,9975596195.0,180,Government,DMER
564,4,Govt medical college and Hospital Aurangabad,,,19.944847311671925,75.41925964069401,,500,Government,DMER
565,35,Govt.Mat.Home Ulhasnagar-4,"Ulhasnagar-4,Ulhasnagar,Thane?%27,%27HSI69747%27)",421002.0,19.2380278,73.1588611,9967438317.0,50,Government,
566,19,Govt.Medical College Hospital Nagpur,Medical chouk Hanuman Nagar,441401.0,21.216577,79.153795,8766812072.0,1401,Government,DMER
567,17,Grant Medical College and JJ group of hospitals,,,19.446040649122807,72.36373664912281,,1352,Government,DMER
568,22,Gupta Medicare Multispeciality Hospital,"Plot No. - 08 , Siddhivinayak Nagar, Sakora Road , NANDGAON, City Survey No 3001/02 , NANDGAON, 423106",423106.0,20.306386,74.65593,7887707704.0,40,Corporate,
569,28,"Gurav Hospital,Sangli,PVT","VIJAYPUR ROAD,BEHIND GANESH TEMPLE,JATH",416404.0,17.13,75.22,9158888169.0,35,Corporate,
570,17,Guru Nanak Hospital and Research Centre,,,19.446040649122807,72.36373664912281,,120,Corporate,
571,35,Gurukripa Hospital,,,19.295112535714285,73.01962990809524,,40,Corporate,
572,25,"H.B.P. Prabhakar Malharrao Kute Memorial Hospital,Akurdi","SURVEY NO 170/171A, MHALSAKA, NT COLLEGE ROAD, CAMBRIDGE INTERNANEARTIONAL, AKURDI, HAVELI, Pune-411035",411035.0,18.65388889,73.78141667,9922501316.0,100,Government,
573,7,HAKIMI MULTISPECIALITY HOSPITAL,"HANUMAN CHOWK ,NEAR HANUMAN TALKIES 40 BIGHA,BULDHANA  443101",443101.0,20.7078,76.2097508,9860950689.0,35,Corporate,
574,16,HALNIKAR MULTISPECIALITY HOSPITAL,"R/L 256330, OLD RENAPUR NAKA, VYENKATESH NAGAR, AMBAJOGAI ROAD, 413512",413512.0,19.968664,73.831608,8149470472.0,30,Corporate,
575,1,HARAL MULTISPECIALITY HOSPITAL,"OPP. TO JADHV PETROL PUMP, AHMADNAGAR KALYAN ROAD %E2%80%93 414001",414001.0,19.1627778,77.3060556,9404755355.0,41,Corporate,
576,35,HARDEV HOSPITAL,"Siddhivinayak Nagar, Prashant Nagar, Sadguru Nagar, Diva, Thane, Maharashtra",400612.0,19.1194423,73.0582298,9022767667.0,17,Corporate,
577,1,HARISHCHANDRA MULTISPECIALITY HOSPITAL,"16/6/1,AKOLE,K.G.ROAD,AKOLE,K.G.ROAD,NEAR BY GADAKH SHORUM,",422601.0,19.516069,74.005775,9623927177.0,100,Corporate,
578,7,HARKUT CHILDRENS HOSPITAL,"01,  NEAR UNITY MRI, BUSS STAND ROAD, JAMBHARUN ROAD,443001",443001.0,20.5336389,76.1794722,7083639544.0,20,Corporate,
579,25,HARSH HOSPITAL,"A TODKAR GARDEN BIBWEWADI KONDHAN ROAD, PUNE-411307",411307.0,18.56578105076228,73.89409255768733,9422032217.0,15,Corporate,
580,25,HARSH MULTISPECIALITY HOSPITAL,"CHAUFULA, NEAR NH65, DAUND, PUNE-412203",412203.0,18.529252,74.336752,9975198515.0,30,Corporate,
581,13,HARSIDDHI MULTI SPECIALITY HOSPITAL,"Plot No 518/6/1 , Ranchhod Nagar Behind Panchmukhi Hanuman Mandir Sindhi Colony Road, Jalgaon 425001",425001.0,20.46428,75.004181,9356618892.0,30,Corporate,
582,17,HARYANA FOUNDATION AND RESEARCH CENTRE,,,19.446040649122807,72.36373664912281,,18,Corporate,
583,18,HCG APEX cancer centre,,,19.11878330833333,72.87393688666666,,119,Corporate,
584,22,HCG Manavta Pvt Ltd,"HCG MANAVATA CANCER CENTRE,OPP. MAHAMARG BUS STAND, MUMBAI NAKA, NASHIK.",422004.0,20.2041737,73.8271949,7888009079.0,50,Corporate,
585,19,HCG NCHRI cancer centre,"Nath Ambazari Rd, Near Shankar Nagar Petrol Pump, Shankar Nagar, Nagpur, Maharashtra?%27,%27HSI11226%27)",440010.0,21.12566667,79.05777778,9823280081.0,30,Corporate,
586,35,HEAL LIFE MULTI-HOSPITAL AND HEART CARE CENTER,"419R/200320, BHIWANDI, kalyan road, BHIWANDI HEALTH CARE HOSPITAL %E2%80%93 421302",421302.0,19.2103751,73.0464259,8983394100.0,50,Corporate,
587,22,HEART & SOUL SUPER SPECIALITY HOSPITAL,"GAGANGIRI COMPLEX , EKATMATA CHOWK , CAMP ROAD , MALEGAON,camp road,NASHIK",423203.0,20.5533619,74.5080312,8919038585.0,40,Corporate,
588,3,HI TECH MULTISPECIALTY HOSPITAL & R C,"Rajapeth,Dastur nagar Road Nr Nanda Market",444606.0,20.93,77.77,7212676416.0,65,Corporate,
589,34,HIRACHAND MUNOT MEMORIAL CRITICARE HOSPITAL,"NEAR DARDA UDYAN, DARWHA ROAD, 445001",445001.0,20.4131111,78.1337777,9075070066.0,100,Corporate,
590,25,HSHC LLPs OMKAR HOSPITAL,"422/2221, SANT TUKARAM NAGAR,OPP SWAMI SAMARTH MATH, WADILAL BUS STOP,PIMPRI PCMC PUNE, Haveli, Pune-411018",411018.0,18.6325,73.82083333,9096544446.0,30,Corporate,
591,17,Habib Hospital,,,19.446040649122807,72.36373664912281,,68,Corporate,
592,17,"Haji Mohammad Haji Siddik Maternity Home,",,,19.446040649122807,72.36373664912281,,30,Government,
593,20,Halikar Hospital,"2312, Old Bus Stand Road, Shahaji Nagar, Nanded - 431717",431717.0,19.2,77.4,9405773293.0,10,Corporate,
594,35,Hare Krishna manavkalyan multi speciality hospital,Ganesh nager Diva Agasan road Chaitanya Appartment103/1 Diva East Thane Maharashtra 400612,400612.0,19.1194423,73.0582298,9987251923.0,35,Corporate,
595,15,"Hattarki Hospital, Gadhinglaj","RS.NO.97/1A PLOT NO.4&5,BHADGAON ROAD,RAM MANDIR,NEAR GHALI COLLEGE GADHINGLAJ,KOLHAPUR,",416502.0,16.60630039894737,74.30376235873685,9823884616.0,50,Corporate,
596,31,Hegade Hospital akluj,"99/1/B/1/P/35/36, 100 Feet Bypass Road, Audumbar Nagar , Akluj, Malshiras, Solapur-413101",413101.0,17.477512,75.298578,9096645404.0,35,Corporate,
597,35,Highway Hospital and Multispeciality centre,"Devashish Appartment, Marathon Circle, Near Luis Wadi, Eastern Express Highway, Teenhath Naka, Thane, Maharashtra",400602.0,19.1993056,72.9793333,9820448541.0,50,Corporate,
598,22,Hindu Hriday Samrat Balasaheb Thakre Rugnalaya,Nashik Road - 422101,422101.0,19.968664,73.831608,9850226370.0,200,Government,
599,17,Hindu Hruday Samrat Balasaheb Thakre Trauma care Municipal Hospital Jogeshwari East,,,19.446040649122807,72.36373664912281,,304,Government,
600,15,Hiremath Hospital,"38713161A,URDU HIGHSCHOOL,SANJEEVAN HOSPITAL,KOLHAPUR",416101.0,16.60630039894737,74.30376235873685,9423647222.0,50,Corporate,
601,11,Hope Heart Hospital,"RELIANCE PETROL PUMP AMGOAN ROAD,GONDIA -441601",,21.302498825748504,79.9048506275449,8275290926.0,30,Corporate,
602,19,Hope Hospitals,"Plot no: 2, Kamptee Rd, Teka Naka, Nagpur, GO GAS STATION Maharashtra 440012",440012.0,21.41470797226994,78.84095818131902,9373111709.0,100,Corporate,
603,28,Horizon hospital,"S.No.338 , 2B, A1B1 Dhamni Road, 3rd lane,  Sangli Miraj Kupwad ( M Corp. ) , Miraj Sangli , Dist - Sangli - 416416",416416.0,17.0348056,74.6018333,9371621038.0,50,Corporate,
604,15,"Hridam Multispeciality Hospital,Karvir,Kolhapur,Pvt","383/K,  E WARD, 13TH LANE RAJARAMPURI, KOLHAPUR-416008",416008.0,16.68958333,74.24847222,9307817954.0,30,Corporate,
605,15,Hridaya Multi-Speciality Hospital & Research Center,"Gat no.1096 A,HERLE,Kolhapur-Sangli Road HERLE,High-way Touch,KOLHAPUR",416005.0,16.60630039894737,74.30376235873685,9823016250.0,18,Corporate,
606,31,Hrudayam Superspeciality Hospital and Research Center,"8372/ G, Opp. Vijay Clinic 146/2 Railway Lines , Solapur - 413001",413001.0,17.6659167,75.8943333,8444894955.0,36,Corporate,
607,20,ICON MULTISPECIALITY HOSPITAL,"Plot no. 03 no. 25 purusharth cop. Of housing sociaty javahar nagar, sathe chouk, Nanded",431601.0,20.554431,74.512024,9833983243.0,40,Corporate,
608,12,ICON Multispecility Hospital,"Haji Sk Ismail Comlex Pensionpira Hingoli,Ismail Comlex,Pensionpira Hingoli",431513.0,77.1476,19.79908,8856814329.0,30,Corporate,
609,16,ICON superspeciality hospital latur,"Near Dayanand College, shivaji chowk, barshi Road Latur-413512",413512.0,19.968664,73.831608,7083424818.0,25,Corporate,
610,35,IDEAL GENERAL HOSPITAL,,,19.295112535714285,73.01962990809524,,400,Corporate,
611,17,IKSHANA NETRALAYA PVT LTD,,,19.446040649122807,72.36373664912281,,10,Corporate,
612,4,IMMICARE MULTISPECIALITY HOSPITAL,,,19.944847311671925,75.41925964069401,,35,Corporate,
613,1,IMPULSE PLUS HOSPITAL PVT.LTD,PLOT.NO.11 SAVEDI NAKA MANMAD ROAD SAVEDI AHILYANAGAR 414003,414003.0,19.1162222,74.7353611,9822839854.0,65,Corporate,
614,1,INDO IRISH HOSPITAL,"TAPOVAN ROAD , JONDHALE FARM, NANA CHOWK, AHMEDNAGAR- 414003",414003.0,19.1162222,74.7353611,7757863786.0,170,Corporate,
615,25,INDRESHWAR SUPER SPECIALITY HOSPITAL PVT.LTD,"Dhanvantari Plaza Vighnaharta Nagar Old National Highway, Indapur, Dist- Pune- 413106",413106.0,18.102174,75.095159,7588034800.0,35,Corporate,
616,27,INFIGO EYE CARE HOSPITAL,"SHOP NO -3,4,5  SHANTADURG SANKU;SALVI STOP, MAIN ROAD %E2%80%93 415612",415612.0,17.01779,73.27482,9372766504.0,5,Corporate,
617,15,INGALE SURGICAL HOSPITAL AND LAPROSCOPY CENTER,DEBONCE CORNER JAYSINGPUR SHIROL KOLHAPUR 416101,416101.0,16.60630039894737,74.30376235873685,7028917628.0,30,Corporate,
618,35,ISHA EYECARE PVT LTD,"2ND FLLOR, PRABHAT PLAZA, NEAR WALFARE CENTRE,OPP. NAVARE ARCADE,SHIV MANDIR ROAD, - 421501",421501.0,19.2072778,73.18275,8657953522.0,10,Corporate,
619,4,ISHWAR INSTUTUTE OF HEALTH CARE,,,19.944847311671925,75.41925964069401,,30,Corporate,
620,19,Icon Hospital,"Icon Hospital,K12, Amravati Road,Bharat Nagar,Amravati Road,kinkhede layout,NAGPUR",440033.0,21.1521944,79.0691667,8275044877.0,60,Corporate,
621,34,Icon Hospital Pusad,"3895,Pusad,New Doctor Line Pusad,NAIK SQUARE PUSAD,YAVATMAL",445204.0,19.9088611,77.5718055,9822363149.0,30,Corporate,
622,4,Ikon Multispeciality Hospital pvt Ltd,,,19.944847311671925,75.41925964069401,,30,Corporate,
623,19,Imamwada Isolation Hospital In Rambagh,Imamwada Isolation Hospital In Rambagh - 440003,440003.0,21.12283333,79.08502778,9325853351.0,40,Government,
624,25,"Indapur Criticare Center, Pune","A44,indapur,pune",413106.0,18.102174,75.095159,9156101414.0,50,Corporate,
625,25,"Indian Institute of Metabolic Sciences & Dr. Todkar Multispecialty Hospital (A Joint Venture of PMC and JT Foundation),Pune,PVT","Survey No. 33, Pan Card Club Road, Next to Malpani M-Agile, Pune-411045",411045.0,18.568623,73.766606,9823390505.0,150,Corporate,
626,15,"Indira Gandhi G.H., Ichalkaranji, Dist. Kolhapur","16/992,Ichalkaranji,Main Road.Gokul Chouk,KOLHAPUR",416115.0,16.40594444,74.28052778,9552565849.0,200,Government,
627,19,Indira Gandhi Goverment Medical College and Genreral Hospital,"Central Avenu Near Railway Station?%27,%27HSP011211509%27)",440018.0,21.1513175,79.0991502,9156543001.0,574,Government,DMER
628,19,Indira Gandhi Hospital,"Indira Gandhi Hospital Co op Colony, Ambazari - 440010",440010.0,21.12566667,79.05777778,9226380480.0,88,Government,
629,22,"Indira Gandhi Rugnalaya, Panchvati","Panchavati,Nashik - 422001",422001.0,20.0082,73.80645,9922020306.0,50,Government,
630,1,Indira Hospital,"Indira Hospital,Jamkhed,on front Of Bus Stand,Khade Nagar,AHMADNAGAR??%27,%27HSI50072%27)",422605.0,19.612829,74.101239,8380807351.0,60,Corporate,
631,5,Indrakshi Eye Care,RAJIV GANDHI SQUARE BHANDARA,441904.0,21.1630556,79.6558056,9823834910.0,10,Corporate,
1,35,Indravati Hospital & Research Centre,"1,Rajashri Shahu Maharaj Marg,Behind NMMT Bus Depot,AIROLI-",400708.0,19.15,72.99,9867367836.0,50,Corporate,
632,25,Indrayani Hospital & Cancer Institute,"S.No. 217(2/3/4), Part 218,Alandi Devachi,Alandi Chakan Road,Opp warkari Shikshan sanstha,PUNE",412105.0,18.6856,73.9441,8805442020.0,0,Corporate,
633,22,"Indu Memorial Hospital, Behind District Court, Malegaon","70/3,SHREE SANKET EMPIRE,2ND FLOOR ,BEHIND DISTRICT COURT,MALEGAON.",423203.0,20.5533619,74.5080312,7411250201.0,45,Corporate,
634,34,Indudatta Multispeciality Hospital Pvt Ltd,"Umarkhed, Near Bus Stand, Nanded Road UmarkhedTiwarangkar Complex, 445206",445206.0,19.6008611,77.6906388,8308702727.0,20,Corporate,
635,35,Infigo Eye Care Hospital Bhayander,1001 First Floor C Wing Janaki Heritage Opp Maxus Mall Bhayander W Maharashtra 401101,401101.0,19.2982232,72.824575,9372717697.0,10,Corporate,
636,35,Infigo Eye Care Hospital Virar,,,19.295112535714285,73.01962990809524,,10,Corporate,
637,35,"Infigo Eyecare Hospital, Palghar",,,19.295112535714285,73.01962990809524,,10,Corporate,
638,9,Institute of Urology,"CTS no. 3554/A2, 3, 4,Moglai,Sakri road,DHULE",424001.0,20.9254213,74.7395367,9422788113.0,115,Corporate,
639,25,"Integrated Cancer Treatment & Research Centre , Wagholi","WAGHOLI,KESNAND ROAD, OPP. CITRON Pune?%27,%27HSI70425%27)",412207.0,18.5458332,74.20912,9820648058.0,50,Corporate,
640,4,International Hospital Aurangabad,,,19.944847311671925,75.41925964069401,,30,Corporate,
641,28,Isapure Orthopeadic Hospital,Lokmanya Tilak Nagar Miraj Sangli 416410,416410.0,17.0348056,74.6018333,9890025848.0,50,Corporate,
642,25,"Isha Eye Care Pvt Ltd,Pune City,Pune,Pvt","1ST FLOOR , A WING, PREMIER PLAZA, ANAND NAGAR, OLD MUMBAI -PUNE HIGHWAY, Pune- 411019",411019.0,18.6395,73.79586111,9004344116.0,10,Corporate,
643,35,Isha Eyecare Pvt Ltd Kalyan,"1ST FLOOR,RADHA KRISHNA SANKUL,OPPOSITE HOLY CROSS HOSPITAL,KALYAN WEST",400607.0,19.2376677,72.9777802,7738055143.0,20,Corporate,
644,35,Isha Eyecare Pvt Ltd Thane,"DOSTI IMPERIA, SHOP NO 2, NEAR R MALL, GHODBANDER, THANE WEST, Ghodbunder Service Rd, Bhavani Nagar, Thane West, Thane, Maharashtra 400607",400607.0,19.2376677,72.9777802,7738055143.0,20,Corporate,
645,4,"J J Plus Hospitals Pvt Ltd, Aurangabad",,,19.944847311671925,75.41925964069401,,45,Corporate,
646,25,J S HOSPITAL,"S.NO.52/12, NARHE,  NEAR NAVLE BRIDGE, Haveli, Pune-411041",411041.0,18.4508056,73.8119167,7798764393.0,32,Corporate,
